$GPGGA,075554.40,5650.8190,N,03553.2924,E,1,05,08.5,182.4,M,16.0,M,,*55
$GPRMC,075554.40,A,5650.8190,N,03553.2924,E,00.38,016.7,050318,,,A*53
$GPGSV,3,1,09,02,00,000,34,05,24,311,41,09,77,125,40,33,11,236,*7E
$GPGSV,3,2,09,37,24,197,,38,11,236,,39,25,192,,40,23,157,*71
$GPGSV,3,3,09,41,13,127,*43
$GLGSV,1,1,03,67,84,271,36,68,28,312,39,83,07,291,34*55
$GNGSA,A,3,05,09,,,,,,,,,,,10.8,08.5,06.6*14
$GNGSA,A,3,67,83,68,,,,,,,,,,10.8,08.5,06.6*1C
$PORZD,A,125.5*3F
$GPGGA,075555.40,5650.8071,N,03553.2811,E,1,05,08.5,161.6,M,16.0,M,,*52
$GPRMC,075555.40,A,5650.8071,N,03553.2811,E,00.00,016.7,050318,,,A*50
$GPGSV,3,1,09,02,00,000,34,05,24,311,41,09,77,125,41,33,11,236,*7F
$GPGSV,3,2,09,37,24,197,,38,11,236,,39,25,192,,40,23,157,*71
$GPGSV,3,3,09,41,13,127,*43
$GLGSV,1,1,03,67,84,271,36,68,28,312,39,83,07,291,34*55
$GNGSA,A,3,05,09,,,,,,,,,,,10.8,08.5,06.6*14
$GNGSA,A,3,67,83,68,,,,,,,,,,10.8,08.5,06.6*1C
$PORZD,A,090.5*30
$GPGGA,075556.40,5650.8064,N,03553.2785,E,1,05,08.5,163.8,M,16.0,M,,*5B
$GPRMC,075556.40,A,5650.8064,N,03553.2785,E,00.00,016.7,050318,,,A*55
$GPGSV,3,1,09,02,00,000,33,05,24,311,41,09,77,125,41,33,11,236,*78
$GPGSV,3,2,09,37,24,197,,38,11,236,,39,25,192,,40,23,157,*71
$GPGSV,3,3,09,41,13,127,*43
$GLGSV,1,1,03,67,84,271,36,68,28,312,39,83,07,291,34*55
$GNGSA,A,3,05,09,,,,,,,,,,,10.8,08.5,06.6*14
$GNGSA,A,3,67,83,68,,,,,,,,,,10.8,08.5,06.6*1C
$PORZD,A,068.0*32
$GPGGA,075557.40,5650.8064,N,03553.2781,E,1,05,08.5,164.0,M,16.0,M,,*51
$GPRMC,075557.40,A,5650.8064,N,03553.2781,E,00.00,016.7,050318,,,A*50
$GPGSV,3,1,09,02,00,000,35,05,24,311,41,09,77,125,41,33,11,236,*7E
$GPGSV,3,2,09,37,24,197,,38,11,236,,39,25,192,,40,23,157,*71
$GPGSV,3,3,09,41,13,127,*43
$GLGSV,1,1,03,67,84,271,36,68,28,312,39,83,07,291,34*55
$GNGSA,A,3,05,09,,,,,,,,,,,10.8,08.5,06.6*14
$GNGSA,A,3,67,83,68,,,,,,,,,,10.8,08.5,06.6*1C
$PORZD,A,065.1*3E
$GPGGA,075559.00,5650.8063,N,03553.2776,E,1,05,08.5,164.3,M,16.0,M,,*57
$GPRMC,075559.00,A,5650.8063,N,03553.2776,E,00.00,016.7,050318,,,A*55
$GPGSV,3,1,09,02,00,000,39,05,24,311,46,09,77,125,45,33,11,236,*71
$GPGSV,3,2,09,37,24,197,,38,11,236,,39,25,192,,40,23,157,*71
$GPGSV,3,3,09,41,13,127,*43
$GLGSV,1,1,03,67,84,271,40,68,28,312,42,83,07,291,38*54
$GNGSA,A,3,05,09,,,,,,,,,,,10.8,08.5,06.6*14
$GNGSA,A,3,67,83,68,,,,,,,,,,10.8,08.5,06.6*1C
$PORZD,A,066.3*3F
$GPGGA,075600.00,5650.8062,N,03553.2773,E,1,05,08.5,164.5,M,16.0,M,,*5A
$GPRMC,075600.00,A,5650.8062,N,03553.2773,E,00.00,016.7,050318,,,A*5E
$GPGSV,3,1,09,02,00,000,37,05,24,311,42,09,77,125,41,33,11,236,*7F
$GPGSV,3,2,09,37,24,197,,38,11,236,,39,25,192,,40,23,157,*71
$GPGSV,3,3,09,41,13,127,*43
$GLGSV,1,1,03,67,84,271,37,68,28,312,38,83,07,291,34*55
$GNGSA,A,3,05,09,,,,,,,,,,,10.8,08.5,06.6*14
$GNGSA,A,3,67,83,68,,,,,,,,,,10.8,08.5,06.6*1C
$PORZD,A,065.5*3A
$GNGBS,075600.00,,,,,,,*75
$GPGGA,075601.00,5650.8062,N,03553.2773,E,6,,,164.5,M,16.0,M,,*4A
$GPRMC,075601.00,V,5650.8062,N,03553.2773,E,00.00,016.7,050318,,,E*4C
$GPGSV,3,1,09,02,00,000,35,05,24,311,41,09,77,125,40,33,11,236,*7F
$GPGSV,3,2,09,37,24,197,,38,11,236,,39,25,192,,40,23,157,*71
$GPGSV,3,3,09,41,13,127,*43
$GLGSV,1,1,03,67,84,271,37,68,28,312,37,83,07,291,34*5A
$GPGSA,A,1,,,,,,,,,,,,,10.8,08.5,06.6*04
$PORZD,V,066.1*2A
$GPGGA,075602.00,5650.8062,N,03553.2773,E,6,,,164.5,M,16.0,M,,*49
$GPRMC,075602.00,V,5650.8062,N,03553.2773,E,00.00,016.7,050318,,,E*4F
$GPGSV,3,1,09,02,00,000,36,05,24,311,41,09,77,125,40,33,11,236,*7C
$GPGSV,3,2,09,37,24,197,,38,11,236,,39,25,192,,40,23,157,*71
$GPGSV,3,3,09,41,13,127,*43
$GLGSV,1,1,03,67,84,271,37,68,28,312,37,83,07,291,34*5A
$GPGSA,A,1,,,,,,,,,,,,,10.8,08.5,06.6*04
$PORZD,V,068.1*24
$GPGGA,075603.00,5650.8061,N,03553.2769,E,1,05,08.5,164.8,M,16.0,M,,*5C
$GPRMC,075603.00,A,5650.8061,N,03553.2769,E,00.00,000.0,050318,,,A*55
$GPGSV,3,1,09,02,00,000,37,05,24,311,41,09,77,125,40,33,11,236,*7D
$GPGSV,3,2,09,37,24,197,,38,11,236,,39,25,192,,40,23,157,*71
$GPGSV,3,3,09,41,13,127,*43
$GLGSV,1,1,03,67,84,271,37,68,28,312,37,83,07,291,34*5A
$GNGSA,A,3,05,09,,,,,,,,,,,10.7,08.5,06.6*1B
$GNGSA,A,3,67,83,68,,,,,,,,,,10.7,08.5,06.6*13
$PORZD,A,069.8*3B
$GPGGA,075604.00,5650.8061,N,03553.2765,E,1,05,08.5,165.1,M,16.0,M,,*5F
$GPRMC,075604.00,A,5650.8061,N,03553.2765,E,00.00,000.0,050318,,,A*5E
$GPGSV,3,1,09,02,00,000,37,05,24,311,41,09,77,125,40,33,11,236,*7D
$GPGSV,3,2,09,37,24,197,,38,11,236,,39,25,192,,40,23,157,*71
$GPGSV,3,3,09,41,13,127,*43
$GLGSV,1,1,03,67,84,271,37,68,28,312,37,83,07,291,34*5A
$GNGSA,A,3,05,09,,,,,,,,,,,10.7,08.5,06.6*1B
$GNGSA,A,3,67,83,68,,,,,,,,,,10.7,08.5,06.6*13
$PORZD,A,068.6*34
$GPGGA,075605.00,5650.8061,N,03553.2765,E,6,,,165.1,M,16.0,M,,*4F
$GPRMC,075605.00,V,5650.8061,N,03553.2765,E,00.00,000.0,050318,,,E*4C
$GPGSV,3,1,09,02,00,000,36,05,24,311,42,09,77,125,40,33,11,236,*7F
$GPGSV,3,2,09,37,24,197,,38,11,236,,39,25,192,,40,23,157,*71
$GPGSV,3,3,09,41,13,127,*43
$GLGSV,1,1,03,67,84,271,37,68,28,312,36,83,07,291,34*5B
$GPGSA,A,1,,,,,,,,,,,,,10.7,08.5,06.6*0B
$PORZD,V,069.3*27
$GPGGA,075606.00,5650.8061,N,03553.2765,E,6,,,165.1,M,16.0,M,,*4C
$GPRMC,075606.00,V,5650.8061,N,03553.2765,E,00.00,000.0,050318,,,E*4F
$GPGSV,3,1,09,02,00,000,35,05,24,311,41,09,77,125,39,33,11,236,*71
$GPGSV,3,2,09,37,24,197,,38,11,236,,39,25,192,,40,23,157,*71
$GPGSV,3,3,09,41,13,127,*43
$GLGSV,1,1,03,67,84,271,38,68,28,312,37,83,07,291,34*55
$GPGSA,A,1,,,,,,,,,,,,,10.7,08.5,06.6*0B
$PORZD,V,071.3*2E
$GPGGA,075607.00,5650.8061,N,03553.2765,E,6,,,165.1,M,16.0,M,,*4D
$GPRMC,075607.00,V,5650.8061,N,03553.2765,E,00.00,000.0,050318,,,E*4E
$GPGSV,3,1,09,02,00,000,35,05,24,311,41,09,77,125,40,33,11,236,*7F
$GPGSV,3,2,09,37,24,197,,38,11,236,,39,25,192,,40,23,157,*71
$GPGSV,3,3,09,41,13,127,*43
$GLGSV,1,1,03,67,84,271,38,68,28,312,36,83,07,291,34*54
$GPGSA,A,1,,,,,,,,,,,,,10.7,08.5,06.6*0B
$PORZD,V,074.7*2F
$GPGGA,075608.00,5650.8061,N,03553.2765,E,6,,,165.1,M,16.0,M,,*42
$GPRMC,075608.00,V,5650.8061,N,03553.2765,E,00.00,000.0,050318,,,E*41
$GPGSV,3,1,09,02,00,000,34,05,24,311,42,09,77,125,39,33,11,236,*73
$GPGSV,3,2,09,37,24,197,,38,11,236,,39,25,192,,40,23,157,*71
$GPGSV,3,3,09,41,13,127,*43
$GLGSV,1,1,03,67,84,271,38,68,28,312,37,83,07,291,33*52
$GPGSA,A,1,,,,,,,,,,,,,10.7,08.4,06.6*0A
$PORZD,V,079.5*20
$GPGGA,075609.00,5650.8061,N,03553.2765,E,0,,,165.1,M,16.0,M,,*45
$GPRMC,075609.00,V,5650.8061,N,03553.2765,E,00.00,000.0,050318,,,N*4B
$GPGSV,3,1,09,02,00,000,34,05,25,311,41,09,76,124,39,33,11,236,*71
$GPGSV,3,2,09,37,24,197,,38,11,236,,39,25,192,,40,23,157,*71
$GPGSV,3,3,09,41,13,127,*43
$GLGSV,1,1,03,67,84,270,38,68,28,313,36,83,07,291,33*53
$GPGSA,A,1,,,,,,,,,,,,,10.7,08.4,06.6*0A
$PORZD,V,085.7*21
$GPGGA,075610.00,5650.8111,N,03553.2916,E,1,05,08.4,158.7,M,16.0,M,,*5F
$GPRMC,075610.00,A,5650.8111,N,03553.2916,E,00.00,000.0,050318,,,A*57
$GPGSV,3,1,09,02,00,000,34,05,25,311,41,09,76,124,38,33,11,236,*70
$GPGSV,3,2,09,37,24,197,,38,11,236,,39,25,192,,40,23,157,*71
$GPGSV,3,3,09,41,13,127,*43
$GLGSV,1,1,03,67,84,269,38,68,28,313,37,83,07,291,33*5A
$GNGSA,A,3,05,09,,,,,,,,,,,10.7,08.4,06.6*1A
$GNGSA,A,3,67,83,68,,,,,,,,,,10.7,08.4,06.6*12
$PORZD,A,086.9*3B
$GNGBS,075610.00,,,,,,,*74
$GPGGA,075611.00,5650.8142,N,03553.3018,E,1,05,08.4,154.1,M,16.0,M,,*54
$GPRMC,075611.00,A,5650.8142,N,03553.3018,E,00.00,000.0,050318,,,A*56
$GPGSV,3,1,09,02,00,000,34,05,25,311,41,09,76,124,38,33,11,236,*70
$GPGSV,3,2,09,37,24,197,,38,11,236,,39,25,192,,40,23,157,*71
$GPGSV,3,3,09,41,13,127,*43
$GLGSV,1,1,03,67,84,269,38,68,28,313,38,83,07,291,33*55
$GNGSA,A,3,05,09,,,,,,,,,,,10.7,08.4,06.6*1A
$GNGSA,A,3,67,83,68,,,,,,,,,,10.7,08.4,06.6*12
$PORZD,A,083.1*36
$GPGGA,075612.00,5650.8168,N,03553.3117,E,1,05,08.4,148.8,M,16.0,M,,*55
$GPRMC,075612.00,A,5650.8168,N,03553.3117,E,00.00,000.0,050318,,,A*53
$GPGSV,3,1,09,02,00,000,35,05,25,311,42,09,76,124,39,33,11,236,*73
$GPGSV,3,2,09,37,24,197,,38,11,236,,39,25,192,,40,23,157,*71
$GPGSV,3,3,09,41,13,127,*43
$GLGSV,1,1,03,67,84,269,38,68,28,313,38,83,07,291,33*55
$GNGSA,A,3,05,09,,,,,,,,,,,10.7,08.4,06.6*1A
$GNGSA,A,3,67,83,68,,,,,,,,,,10.7,08.4,06.6*12
$PORZD,A,077.5*39
$GPGGA,075613.00,5650.8185,N,03553.3180,E,1,05,08.4,144.7,M,16.0,M,,*5A
$GPRMC,075613.00,A,5650.8185,N,03553.3180,E,00.00,000.0,050318,,,A*5F
$GPGSV,3,1,09,02,00,000,35,05,25,311,42,09,76,124,38,33,11,236,*72
$GPGSV,3,2,09,37,24,197,,38,11,236,,39,25,192,,40,23,157,*71
$GPGSV,3,3,09,41,13,127,*43
$GLGSV,1,1,03,67,84,269,38,68,28,313,39,83,07,291,34*53
$GNGSA,A,3,05,09,,,,,,,,,,,10.7,08.4,06.6*1A
$GNGSA,A,3,67,83,68,,,,,,,,,,10.7,08.4,06.6*12
$PORZD,A,072.7*3E
$GPGGA,075614.00,5650.8191,N,03553.3212,E,1,05,08.4,141.3,M,16.0,M,,*51
$GPRMC,075614.00,A,5650.8191,N,03553.3212,E,00.00,000.0,050318,,,A*55
$GPGSV,3,1,09,02,00,000,35,05,25,311,42,09,76,124,38,33,11,236,*72
$GPGSV,3,2,09,37,24,197,,38,11,236,,39,25,192,,40,23,157,*71
$GPGSV,3,3,09,41,13,127,*43
$GLGSV,1,1,03,67,84,269,38,68,28,313,39,83,07,291,33*54
$GNGSA,A,3,05,09,,,,,,,,,,,10.7,08.4,06.6*1A
$GNGSA,A,3,67,83,68,,,,,,,,,,10.7,08.4,06.6*12
$PORZD,A,070.2*39
$GPGGA,075615.00,5650.8193,N,03553.3228,E,1,05,08.4,139.2,M,16.0,M,,*55
$GPRMC,075615.00,A,5650.8193,N,03553.3228,E,00.00,000.0,050318,,,A*5F
$GPGSV,3,1,09,02,00,000,36,05,25,311,42,09,76,124,38,33,11,236,*71
$GPGSV,3,2,09,37,24,197,,38,11,236,,39,25,192,,40,23,157,*71
$GPGSV,3,3,09,41,13,127,*43
$GLGSV,1,1,03,67,84,269,38,68,28,313,40,83,07,291,33*5A
$GNGSA,A,3,05,09,,,,,,,,,,,10.7,08.4,06.6*1A
$GNGSA,A,3,67,83,68,,,,,,,,,,10.7,08.4,06.6*12
$PORZD,A,070.0*3B
$GPGGA,075616.00,5650.8193,N,03553.3239,E,1,05,08.4,137.5,M,16.0,M,,*5F
$GPRMC,075616.00,A,5650.8193,N,03553.3239,E,00.00,000.0,050318,,,A*5C
$GPGSV,3,1,09,02,00,000,36,05,25,311,42,09,76,124,38,33,11,236,*71
$GPGSV,3,2,09,37,24,197,,38,11,236,,39,25,192,,40,23,157,*71
$GPGSV,3,3,09,41,13,127,*43
$GLGSV,1,1,03,67,84,269,38,68,28,313,40,83,07,291,34*5D
$GNGSA,A,3,05,09,,,,,,,,,,,10.7,08.4,06.6*1A
$GNGSA,A,3,67,83,68,,,,,,,,,,10.7,08.4,06.6*12
$PORZD,A,068.9*3B
$GPGGA,075617.00,5650.8192,N,03553.3245,E,1,05,08.4,136.2,M,16.0,M,,*52
$GPRMC,075617.00,A,5650.8192,N,03553.3245,E,00.00,000.0,050318,,,A*57
$GPGSV,3,1,09,02,00,000,36,05,25,311,42,09,76,124,37,33,11,236,*7E
$GPGSV,3,2,09,37,24,197,,38,11,236,,39,25,192,,40,23,157,*71
$GPGSV,3,3,09,41,13,127,*43
$GLGSV,1,1,03,67,84,269,38,68,28,313,40,83,07,291,33*5A
$GNGSA,A,3,05,09,,,,,,,,,,,10.7,08.4,06.5*19
$GNGSA,A,3,67,83,68,,,,,,,,,,10.7,08.4,06.5*11
$PORZD,A,068.3*31
$GPGGA,075618.00,5650.8190,N,03553.3249,E,1,05,08.4,134.9,M,16.0,M,,*5A
$GPRMC,075618.00,A,5650.8190,N,03553.3249,E,00.00,000.0,050318,,,A*56
$GPGSV,3,1,09,02,00,000,36,05,25,311,42,09,76,124,38,33,11,236,*71
$GPGSV,3,2,09,37,24,197,,38,11,236,,39,25,192,,40,23,157,*71
$GPGSV,3,3,09,41,13,127,*43
$GLGSV,1,1,03,67,84,269,38,68,28,313,40,83,07,291,34*5D
$GNGSA,A,3,05,09,,,,,,,,,,,10.7,08.4,06.5*19
$GNGSA,A,3,67,83,68,,,,,,,,,,10.7,08.4,06.5*11
$PORZD,A,071.4*3E
$GPGGA,075619.00,5650.8186,N,03553.3251,E,1,05,08.4,133.7,M,16.0,M,,*5C
$GPRMC,075619.00,A,5650.8186,N,03553.3251,E,00.00,000.0,050318,,,A*59
$GPGSV,3,1,09,02,00,000,35,05,25,311,41,09,76,124,38,33,11,236,*71
$GPGSV,3,2,09,37,24,197,,38,11,236,,39,25,192,,40,23,157,*71
$GPGSV,3,3,09,41,13,127,*43
$GLGSV,1,1,03,67,84,269,38,68,28,313,41,83,07,291,34*5C
$GNGSA,A,3,05,09,,,,,,,,,,,10.7,08.4,06.5*19
$GNGSA,A,3,67,83,68,,,,,,,,,,10.7,08.4,06.5*11
$PORZD,A,071.7*3D
$GPGGA,075620.00,5650.8181,N,03553.3249,E,1,05,08.4,132.8,M,16.0,M,,*56
$GPRMC,075620.00,A,5650.8181,N,03553.3249,E,00.00,000.0,050318,,,A*5D
$GPGSV,3,1,09,02,00,000,35,05,25,311,41,09,76,124,38,33,11,236,*71
$GPGSV,3,2,09,37,24,197,,38,11,236,,39,25,192,,40,23,157,*71
$GPGSV,3,3,09,41,13,127,*43
$GLGSV,1,1,03,67,84,269,38,68,28,313,40,83,07,291,34*5D
$GNGSA,A,3,05,09,,,,,,,,,,,10.7,08.4,06.5*19
$GNGSA,A,3,67,83,68,,,,,,,,,,10.7,08.4,06.5*11
$PORZD,A,070.8*33
$GNGBS,075620.00,,,,,,,*77
$GPGGA,075621.00,5650.8174,N,03553.3243,E,1,05,08.4,132.1,M,16.0,M,,*5E
$GPRMC,075621.00,A,5650.8174,N,03553.3243,E,00.00,000.0,050318,,,A*5C
$GPGSV,3,1,09,02,00,000,35,05,25,311,41,09,76,124,38,33,11,236,*71
$GPGSV,3,2,09,37,24,197,,38,11,236,,39,25,192,,40,23,157,*71
$GPGSV,3,3,09,41,13,127,*43
$GLGSV,1,1,03,67,84,269,38,68,28,313,40,83,07,291,34*5D
$GNGSA,A,3,05,09,,,,,,,,,,,10.7,08.4,06.5*19
$GNGSA,A,3,67,83,68,,,,,,,,,,10.7,08.4,06.5*11
$PORZD,A,073.5*3D
$GPGGA,075622.00,5650.8166,N,03553.3236,E,1,05,08.4,131.7,M,16.0,M,,*59
$GPRMC,075622.00,A,5650.8166,N,03553.3236,E,00.00,000.0,050318,,,A*5E
$GPGSV,3,1,09,02,00,000,35,05,25,311,40,09,76,124,38,33,11,236,*70
$GPGSV,3,2,09,37,24,197,,38,11,236,,39,25,192,,40,23,157,*71
$GPGSV,3,3,09,41,13,127,*43
$GLGSV,1,1,03,67,84,269,38,68,28,313,40,83,07,291,34*5D
$GNGSA,A,3,05,09,,,,,,,,,,,10.7,08.4,06.5*19
$GNGSA,A,3,67,83,68,,,,,,,,,,10.7,08.4,06.5*11
$PORZD,A,071.7*3D
$GPGGA,075623.00,5650.8162,N,03553.3227,E,1,05,08.4,131.6,M,16.0,M,,*5D
$GPRMC,075623.00,A,5650.8162,N,03553.3227,E,00.00,000.0,050318,,,A*5B
$GPGSV,3,1,09,02,00,000,35,05,25,311,40,09,76,124,38,33,11,236,*70
$GPGSV,3,2,09,37,24,197,,38,11,236,,39,25,192,,40,23,157,*71
$GPGSV,3,3,09,41,13,127,*43
$GLGSV,1,1,03,67,84,269,38,68,28,313,40,83,07,291,33*5A
$GNGSA,A,3,05,09,,,,,,,,,,,10.7,08.4,06.5*19
$GNGSA,A,3,67,83,68,,,,,,,,,,10.7,08.4,06.5*11
$PORZD,A,069.3*30
$GPGGA,075624.00,5650.8152,N,03553.3215,E,1,05,08.4,131.3,M,16.0,M,,*5D
$GPRMC,075624.00,A,5650.8152,N,03553.3215,E,00.00,000.0,050318,,,A*5E
$GPGSV,3,1,09,02,00,000,35,05,25,311,40,09,76,124,39,33,11,236,*71
$GPGSV,3,2,09,37,24,197,,38,11,236,,39,25,192,,40,23,157,*71
$GPGSV,3,3,09,41,13,127,*43
$GLGSV,1,1,03,67,84,269,39,68,28,313,40,83,07,291,33*5B
$GNGSA,A,3,05,09,,,,,,,,,,,10.7,08.4,06.5*19
$GNGSA,A,3,67,83,68,,,,,,,,,,10.7,08.4,06.5*11
$PORZD,A,068.7*35
$GPGGA,075625.00,5650.8134,N,03553.3200,E,1,05,08.4,130.4,M,16.0,M,,*5E
$GPRMC,075625.00,A,5650.8134,N,03553.3200,E,00.00,000.0,050318,,,A*5B
$GPGSV,3,1,09,02,00,000,35,05,25,311,40,09,76,124,39,33,11,236,*71
$GPGSV,3,2,09,37,24,197,,38,11,236,,39,24,192,,40,23,157,*70
$GPGSV,3,3,09,41,13,127,*43
$GLGSV,1,1,03,67,84,268,39,68,28,313,40,83,07,291,34*5D
$GNGSA,A,3,05,09,,,,,,,,,,,10.7,08.4,06.5*19
$GNGSA,A,3,67,83,68,,,,,,,,,,10.7,08.4,06.5*11
$PORZD,A,068.8*3A
$GPGGA,075626.00,5650.8129,N,03553.3194,E,1,05,08.4,129.9,M,16.0,M,,*5A
$GPRMC,075626.00,A,5650.8129,N,03553.3194,E,00.00,000.0,050318,,,A*5A
$GPGSV,3,1,09,02,00,000,35,05,25,311,40,09,76,124,38,33,11,236,*70
$GPGSV,3,2,09,37,24,197,,38,11,236,,39,24,192,,40,23,157,*70
$GPGSV,3,3,09,41,13,127,*43
$GLGSV,1,1,03,67,84,268,39,68,28,313,39,83,07,291,33*54
$GNGSA,A,3,05,09,,,,,,,,,,,10.7,08.4,06.5*19
$GNGSA,A,3,67,83,68,,,,,,,,,,10.7,08.4,06.5*11
$PORZD,A,066.8*34
$GPGGA,075627.00,5650.8126,N,03553.3192,E,1,05,08.4,129.7,M,16.0,M,,*5C
$GPRMC,075627.00,A,5650.8126,N,03553.3192,E,00.00,000.0,050318,,,A*52
$GPGSV,3,1,09,02,00,000,35,05,25,311,40,09,76,124,38,33,11,236,*70
$GPGSV,3,2,09,37,24,197,,38,11,236,,39,24,192,,40,23,157,*70
$GPGSV,3,3,09,41,13,127,*43
$GLGSV,1,1,03,67,84,268,39,68,28,313,39,83,07,291,33*54
$GNGSA,A,3,05,09,,,,,,,,,,,10.6,08.4,06.5*18
$GNGSA,A,3,67,83,68,,,,,,,,,,10.6,08.4,06.5*10
$PORZD,A,066.4*38
$GPGGA,075628.00,5650.8125,N,03553.3190,E,1,05,08.4,129.6,M,16.0,M,,*53
$GPRMC,075628.00,A,5650.8125,N,03553.3190,E,00.00,000.0,050318,,,A*5C
$GPGSV,3,1,09,02,00,000,35,05,25,311,40,09,76,124,38,33,11,236,*70
$GPGSV,3,2,09,37,24,197,,38,11,236,,39,24,192,,40,23,157,*70
$GPGSV,3,3,09,41,13,127,*43
$GLGSV,1,1,03,67,84,268,39,68,28,313,39,83,07,291,32*55
$GNGSA,A,3,05,09,,,,,,,,,,,10.6,08.4,06.5*18
$GNGSA,A,3,67,83,68,,,,,,,,,,10.6,08.4,06.5*10
$PORZD,A,066.1*3D
$GPGGA,075629.00,5650.8124,N,03553.3189,E,1,05,08.4,129.4,M,16.0,M,,*59
$GPRMC,075629.00,A,5650.8124,N,03553.3189,E,00.00,000.0,050318,,,A*54
$GPGSV,3,1,09,02,00,000,35,05,25,311,39,09,76,124,37,33,11,236,*71
$GPGSV,3,2,09,37,24,197,,38,11,236,,39,24,192,,40,23,157,*70
$GPGSV,3,3,09,41,13,127,*43
$GLGSV,1,1,03,67,84,268,38,68,28,313,38,83,07,291,32*55
$GNGSA,A,3,05,09,,,,,,,,,,,10.6,08.4,06.5*18
$GNGSA,A,3,67,83,68,,,,,,,,,,10.6,08.4,06.5*10
$PORZD,A,065.8*37
$GPGGA,075630.00,5650.8124,N,03553.3189,E,6,,,129.4,M,16.0,M,,*41
$GPRMC,075630.00,V,5650.8124,N,03553.3189,E,00.00,000.0,050318,,,E*4F
$GPGSV,3,1,09,02,00,000,35,05,25,311,39,09,76,124,37,33,11,236,*71
$GPGSV,3,2,09,37,24,197,,38,11,236,,39,24,192,,40,23,157,*70
$GPGSV,3,3,09,41,13,127,*43
$GLGSV,1,1,03,67,84,268,38,68,28,313,38,83,07,291,33*54
$GPGSA,A,1,,,,,,,,,,,,,10.6,08.4,06.5*08
$PORZD,V,067.4*2E
$GPGBS,075630.00,,,,,,,*68
$GPGGA,075631.00,5650.8124,N,03553.3189,E,0,,,129.4,M,16.0,M,,*46
$GPRMC,075631.00,V,5650.8124,N,03553.3189,E,00.00,000.0,050318,,,N*45
$GPGSV,3,1,09,02,00,000,35,05,25,311,39,09,76,124,37,33,11,236,*71
$GPGSV,3,2,09,37,24,197,,38,11,236,,39,24,192,,40,23,157,*70
$GPGSV,3,3,09,41,13,127,*43
$GLGSV,1,1,03,67,84,268,38,68,28,313,38,83,07,291,33*54
$GPGSA,A,1,,,,,,,,,,,,,10.6,08.4,06.5*08
$PORZD,V,070.4*28
$GPGGA,075632.00,5650.8124,N,03553.3189,E,0,,,129.4,M,16.0,M,,*45
$GPRMC,075632.00,V,5650.8124,N,03553.3189,E,00.00,000.0,050318,,,N*46
$GPGSV,3,1,09,02,00,000,35,05,25,311,39,09,76,124,37,33,11,236,*71
$GPGSV,3,2,09,37,24,197,,38,11,236,,39,24,192,,40,23,157,*70
$GPGSV,3,3,09,41,13,127,*43
$GLGSV,1,1,03,67,84,268,38,68,28,313,38,83,07,291,33*54
$GPGSA,A,1,,,,,,,,,,,,,10.6,08.4,06.5*08
$PORZD,V,074.8*20
$GPGGA,075633.00,5650.8124,N,03553.3189,E,0,,,129.4,M,16.0,M,,*44
$GPRMC,075633.00,V,5650.8124,N,03553.3189,E,00.00,000.0,050318,,,N*47
$GPGSV,3,1,09,02,00,000,35,05,25,311,39,09,76,124,36,33,11,236,*70
$GPGSV,3,2,09,37,24,197,,38,11,236,,39,24,192,,40,23,157,*70
$GPGSV,3,3,09,41,13,127,*43
$GLGSV,1,1,03,67,84,268,38,68,28,313,38,83,07,291,33*54
$GPGSA,A,1,,,,,,,,,,,,,10.6,08.4,06.5*08
$PORZD,V,080.5*26
$GPGGA,075634.00,5650.8124,N,03553.3189,E,0,,,129.4,M,16.0,M,,*43
$GPRMC,075634.00,V,5650.8124,N,03553.3189,E,00.00,000.0,050318,,,N*40
$GPGSV,3,1,09,02,00,000,35,05,25,311,38,09,76,124,36,33,11,236,*71
$GPGSV,3,2,09,37,24,197,,38,11,236,,39,24,192,,40,23,157,*70
$GPGSV,3,3,09,41,13,127,*43
$GLGSV,1,1,03,67,84,268,39,68,28,313,39,83,07,291,33*54
$GPGSA,A,1,,,,,,,,,,,,,10.6,08.4,06.5*08
$PORZD,V,087.7*23
$GPGGA,075635.00,5650.8123,N,03553.3189,E,1,05,08.4,129.3,M,16.0,M,,*54
$GPRMC,075635.00,A,5650.8123,N,03553.3189,E,00.00,000.0,050318,,,A*5E
$GPGSV,3,1,09,02,00,000,35,05,25,311,38,09,76,124,35,33,11,236,*72
$GPGSV,3,2,09,37,24,197,,38,11,236,,39,24,192,,40,23,157,*70
$GPGSV,3,3,09,41,13,127,*43
$GLGSV,1,1,03,67,84,268,39,68,28,313,39,83,07,291,33*54
$GNGSA,A,3,05,09,,,,,,,,,,,10.6,08.4,06.5*18
$GNGSA,A,3,67,83,68,,,,,,,,,,10.6,08.4,06.5*10
$PORZD,A,091.7*33
$GPGGA,075636.00,5650.8123,N,03553.3190,E,1,05,08.4,129.2,M,16.0,M,,*5E
$GPRMC,075636.00,A,5650.8123,N,03553.3190,E,00.00,000.0,050318,,,A*55
$GPGSV,3,1,09,02,00,000,34,05,25,311,38,09,76,124,35,33,11,236,*73
$GPGSV,3,2,09,37,24,197,,38,11,236,,39,24,192,,40,23,157,*70
$GPGSV,3,3,09,41,13,127,*43
$GLGSV,1,1,03,67,84,268,38,68,28,313,39,83,07,291,33*55
$GNGSA,A,3,05,09,,,,,,,,,,,10.6,08.4,06.5*18
$GNGSA,A,3,67,83,68,,,,,,,,,,10.6,08.4,06.5*10
$PORZD,A,089.0*3D
$GPGGA,075637.00,5650.8123,N,03553.3191,E,1,05,08.4,129.1,M,16.0,M,,*5D
$GPRMC,075637.00,A,5650.8123,N,03553.3191,E,00.00,000.0,050318,,,A*55
$GPGSV,3,1,09,02,00,000,34,05,25,311,38,09,76,124,35,33,11,236,*73
$GPGSV,3,2,09,37,24,197,,38,11,236,,39,24,192,,40,23,157,*70
$GPGSV,3,3,09,41,13,127,*43
$GLGSV,1,1,03,67,84,268,39,68,28,313,39,83,07,291,34*53
$GNGSA,A,3,05,09,,,,,,,,,,,10.6,08.4,06.5*18
$GNGSA,A,3,67,83,68,,,,,,,,,,10.6,08.4,06.5*10
$PORZD,A,087.0*33
$GPGGA,075638.00,5650.8125,N,03553.3192,E,1,05,08.4,129.1,M,16.0,M,,*57
$GPRMC,075638.00,A,5650.8125,N,03553.3192,E,00.00,000.0,050318,,,A*5F
$GPGSV,3,1,09,02,00,000,34,05,25,311,37,09,76,124,35,33,11,236,*7C
$GPGSV,3,2,09,37,24,197,,38,11,236,,39,24,192,,40,23,157,*70
$GPGSV,3,3,09,41,13,127,*43
$GLGSV,1,1,03,67,84,268,38,68,28,313,40,83,07,291,33*5B
$GNGSA,A,3,05,09,,,,,,,,,,,10.6,08.4,06.5*18
$GNGSA,A,3,67,83,68,,,,,,,,,,10.6,08.4,06.5*10
$PORZD,A,085.3*32
$GPGGA,075639.00,5650.8128,N,03553.3194,E,1,05,08.4,129.2,M,16.0,M,,*5E
$GPRMC,075639.00,A,5650.8128,N,03553.3194,E,00.00,000.0,050318,,,A*55
$GPGSV,3,1,09,02,00,000,35,05,25,310,37,09,76,124,34,33,11,236,*7D
$GPGSV,3,2,09,37,24,197,,38,11,236,,39,24,192,,40,23,157,*70
$GPGSV,3,3,09,41,13,127,*43
$GLGSV,2,1,07,67,84,267,38,68,28,313,40,75,07,035,,76,53,049,*6C
$GLGSV,2,2,07,77,57,191,,78,10,207,,83,06,291,33*55
$GNGSA,A,3,05,09,,,,,,,,,,,10.6,08.4,06.5*18
$GNGSA,A,3,67,83,68,,,,,,,,,,10.6,08.4,06.5*10
$PORZD,A,083.6*31
$GPGGA,075640.00,5650.8128,N,03553.3194,E,0,,,129.2,M,16.0,M,,*46
$GPRMC,075640.00,V,5650.8128,N,03553.3194,E,00.00,000.0,050318,,,N*43
$GPGSV,3,1,09,02,00,000,35,05,25,310,37,09,76,124,34,33,11,236,*7D
$GPGSV,3,2,09,37,24,197,,38,11,236,,39,24,192,,40,23,157,*70
$GPGSV,3,3,09,41,13,127,*43
$GLGSV,2,1,07,67,84,267,38,68,28,313,40,75,07,035,,76,53,049,*6C
$GLGSV,2,2,07,77,57,191,,78,10,207,,83,06,291,33*55
$GPGSA,A,1,,,,,,,,,,,,,10.6,08.4,06.5*08
$PORZD,V,087.3*27
$GPGBS,075640.00,,,,,,,*6F
$GPGGA,075641.00,5650.8128,N,03553.3194,E,0,,,129.2,M,16.0,M,,*47
$GPRMC,075641.00,V,5650.8128,N,03553.3194,E,00.00,000.0,050318,,,N*42
$GPGSV,3,1,09,02,00,000,33,05,25,310,36,09,76,124,33,33,11,236,*7D
$GPGSV,3,2,09,37,24,197,,38,11,236,,39,24,192,,40,23,157,*70
$GPGSV,3,3,09,41,13,127,*43
$GLGSV,2,1,07,67,84,267,38,68,28,313,41,75,07,035,,76,53,049,*6D
$GLGSV,2,2,07,77,57,191,,78,10,207,,83,06,291,33*55
$GPGSA,A,1,,,,,,,,,,,,,10.6,08.4,06.5*08
$PORZD,V,092.4*24
$GPGGA,075642.00,5650.8130,N,03553.3196,E,1,05,08.3,129.3,M,16.0,M,,*5F
$GPRMC,075642.00,A,5650.8130,N,03553.3196,E,00.00,000.0,050318,,,A*52
$GPGSV,3,1,09,02,00,000,34,05,25,310,36,09,76,124,34,33,11,236,*7D
$GPGSV,3,2,09,37,24,197,,38,11,236,,39,24,192,,40,23,157,*70
$GPGSV,3,3,09,41,13,127,*43
$GLGSV,2,1,07,67,84,267,38,68,28,313,41,75,07,035,,76,53,049,*6D
$GLGSV,2,2,07,77,57,191,,78,10,207,,83,06,291,33*55
$GNGSA,A,3,05,09,,,,,,,,,,,10.6,08.3,06.5*1F
$GNGSA,A,3,67,83,68,,,,,,,,,,10.6,08.3,06.5*17
$PORZD,A,094.3*32
$GPGGA,075643.00,5650.8131,N,03553.3198,E,1,05,08.3,129.3,M,16.0,M,,*51
$GPRMC,075643.00,A,5650.8131,N,03553.3198,E,00.00,000.0,050318,,,A*5C
$GPGSV,3,1,09,02,00,000,33,05,25,310,35,09,76,124,32,33,11,236,*7F
$GPGSV,3,2,09,37,24,197,,38,11,236,,39,24,192,,40,23,157,*70
$GPGSV,3,3,09,41,13,127,*43
$GLGSV,2,1,07,67,84,267,38,68,28,313,41,75,07,035,,76,53,049,*6D
$GLGSV,2,2,07,77,57,191,,78,10,207,,83,06,291,33*55
$GNGSA,A,3,05,09,,,,,,,,,,,10.6,08.3,06.5*1F
$GNGSA,A,3,67,83,68,,,,,,,,,,10.6,08.3,06.5*17
$PORZD,A,092.1*36
$GPGGA,075644.00,5650.8131,N,03553.3198,E,6,,,129.3,M,16.0,M,,*41
$GPRMC,075644.00,V,5650.8131,N,03553.3198,E,00.00,000.0,050318,,,E*48
$GPGSV,3,1,09,02,00,000,33,05,25,310,36,09,76,124,32,33,11,236,*7C
$GPGSV,3,2,09,37,24,197,,38,11,236,,39,24,192,,40,23,157,*70
$GPGSV,3,3,09,41,13,127,*43
$GLGSV,2,1,07,67,84,267,38,68,28,313,41,75,07,035,,76,53,049,*6D
$GLGSV,2,2,07,77,57,191,,78,10,207,,83,06,291,33*55
$GPGSA,A,1,,,,,,,,,,,,,10.6,08.3,06.5*0F
$PORZD,V,094.2*24
$GPGGA,075645.00,5650.8131,N,03553.3198,E,6,,,129.3,M,16.0,M,,*40
$GPRMC,075645.00,V,5650.8131,N,03553.3198,E,00.00,000.0,050318,,,E*49
$GPGSV,3,1,09,02,00,000,33,05,25,310,36,09,76,124,33,33,11,236,*7D
$GPGSV,3,2,09,37,24,197,,38,11,236,,39,24,192,,40,23,157,*70
$GPGSV,3,3,09,41,13,127,*43
$GLGSV,2,1,07,67,84,267,37,68,28,313,41,75,07,035,,76,53,049,*62
$GLGSV,2,2,07,77,57,191,,78,10,207,,83,06,291,32*54
$GPGSA,A,1,,,,,,,,,,,,,10.6,08.3,06.5*0F
$PORZD,V,097.7*22
$GPGGA,075646.00,5650.8131,N,03553.3198,E,6,,,129.3,M,16.0,M,,*43
$GPRMC,075646.00,V,5650.8131,N,03553.3198,E,00.00,000.0,050318,,,E*4A
$GPGSV,3,1,09,02,00,000,33,05,25,310,36,09,76,124,33,33,11,236,*7D
$GPGSV,3,2,09,37,24,197,,38,11,236,,39,24,192,,40,23,157,*70
$GPGSV,3,3,09,41,13,127,*43
$GLGSV,2,1,07,67,84,267,37,68,28,313,41,75,07,035,,76,53,049,*62
$GLGSV,2,2,07,77,57,191,,78,10,207,,83,06,291,32*54
$GPGSA,A,1,,,,,,,,,,,,,10.6,08.3,06.5*0F
$PORZD,V,102.6*2E
$GPGGA,075647.00,5650.8133,N,03553.3205,E,1,05,08.3,129.1,M,16.0,M,,*52
$GPRMC,075647.00,A,5650.8133,N,03553.3205,E,01.42,076.8,050318,,,A*53
$GPGSV,3,1,09,02,00,000,34,05,25,310,36,09,76,124,34,33,11,236,*7D
$GPGSV,3,2,09,37,24,197,,38,11,236,,39,24,192,,40,23,157,*70
$GPGSV,3,3,09,41,13,127,*43
$GLGSV,2,1,07,67,84,267,37,68,28,313,41,75,07,035,,76,53,049,*62
$GLGSV,2,2,07,77,57,191,,78,10,207,,83,06,291,32*54
$GNGSA,A,3,05,09,,,,,,,,,,,10.6,08.3,06.5*1F
$GNGSA,A,3,67,83,68,,,,,,,,,,10.6,08.3,06.5*17
$PORZD,A,103.7*39
$GPGGA,075648.00,5650.8129,N,03553.3200,E,1,05,08.3,129.2,M,16.0,M,,*50
$GPRMC,075648.00,A,5650.8129,N,03553.3200,E,02.40,219.8,050318,,,A*58
$GPGSV,3,1,09,02,00,000,34,05,25,310,36,09,76,124,34,33,11,236,*7D
$GPGSV,3,2,09,37,24,197,,38,11,236,,39,24,192,,40,23,157,*70
$GPGSV,3,3,09,41,13,127,*43
$GLGSV,2,1,07,67,84,267,37,68,28,313,41,75,07,035,,76,53,049,*62
$GLGSV,2,2,07,77,57,191,,78,10,207,,83,06,291,32*54
$GNGSA,A,3,05,09,,,,,,,,,,,10.6,08.3,06.5*1F
$GNGSA,A,3,67,83,68,,,,,,,,,,10.6,08.3,06.5*17
$PORZD,A,101.1*3D
$GPGGA,075649.00,5650.8129,N,03553.3199,E,1,05,08.3,129.7,M,16.0,M,,*57
$GPRMC,075649.00,A,5650.8129,N,03553.3199,E,00.00,219.8,050318,,,A*5C
$GPGSV,3,1,09,02,00,000,33,05,25,310,37,09,76,124,33,33,11,236,*7C
$GPGSV,3,2,09,37,24,197,,38,11,236,,39,24,192,,40,23,157,*70
$GPGSV,3,3,09,41,13,127,*43
$GLGSV,2,1,07,67,84,267,37,68,28,313,41,75,07,035,,76,53,049,*62
$GLGSV,2,2,07,77,57,191,,78,10,207,,83,06,291,31*57
$GNGSA,A,3,05,09,,,,,,,,,,,10.6,08.3,06.5*1F
$GNGSA,A,3,67,83,68,,,,,,,,,,10.6,08.3,06.5*17
$PORZD,A,093.8*3E
$GPGGA,075650.00,5650.8131,N,03553.3202,E,1,05,08.3,129.9,M,16.0,M,,*59
$GPRMC,075650.00,A,5650.8131,N,03553.3202,E,00.00,219.8,050318,,,A*5C
$GPGSV,3,1,09,02,00,000,33,05,25,310,37,09,76,124,33,33,11,236,*7C
$GPGSV,3,2,09,37,24,197,,38,11,236,,39,24,192,,40,23,157,*70
$GPGSV,3,3,09,41,13,127,*43
$GLGSV,2,1,07,67,84,267,37,68,28,313,41,75,07,035,,76,53,049,*62
$GLGSV,2,2,07,77,57,191,,78,10,207,,83,06,291,31*57
$GNGSA,A,3,05,09,,,,,,,,,,,10.6,08.3,06.4*1E
$GNGSA,A,3,67,83,68,,,,,,,,,,10.6,08.3,06.4*16
$PORZD,A,089.1*3C
$GNGBS,075650.00,,,,,,,*70
$GPGGA,075651.00,5650.8135,N,03553.3219,E,1,05,08.3,129.0,M,16.0,M,,*5F
$GPRMC,075651.00,A,5650.8135,N,03553.3219,E,07.45,083.8,050318,,,A*54
$GPGSV,3,1,09,02,00,000,34,05,25,310,37,09,76,124,34,33,11,236,*7C
$GPGSV,3,2,09,37,24,197,,38,11,236,,39,24,192,,40,23,157,*70
$GPGSV,3,3,09,41,13,127,*43
$GLGSV,2,1,07,67,84,267,37,68,28,313,41,75,07,035,,76,53,049,*62
$GLGSV,2,2,07,77,57,191,,78,10,207,,83,06,291,31*57
$GNGSA,A,3,05,09,,,,,,,,,,,10.5,08.3,06.4*1D
$GNGSA,A,3,67,83,68,,,,,,,,,,10.5,08.3,06.4*15
$PORZD,A,090.9*3C
$GPGGA,075652.00,5650.8139,N,03553.3234,E,1,05,08.3,129.9,M,16.0,M,,*56
$GPRMC,075652.00,A,5650.8139,N,03553.3234,E,08.50,244.1,050318,,,A*5F
$GPGSV,3,1,09,02,00,000,34,05,25,310,37,09,76,124,33,33,11,236,*7B
$GPGSV,3,2,09,37,24,197,,38,11,236,,39,24,192,,40,23,157,*70
$GPGSV,3,3,09,41,13,127,*43
$GLGSV,2,1,07,67,84,267,37,68,28,313,40,75,07,035,,76,53,049,*63
$GLGSV,2,2,07,77,57,191,,78,10,207,,83,06,291,31*57
$GNGSA,A,3,05,09,,,,,,,,,,,10.5,08.3,06.4*1D
$GNGSA,A,3,67,83,68,,,,,,,,,,10.5,08.3,06.4*15
$PORZD,A,089.9*34
$GPGGA,075653.00,5650.8150,N,03553.3275,E,1,05,08.3,129.7,M,16.0,M,,*53
$GPRMC,075653.00,A,5650.8150,N,03553.3275,E,00.00,000.0,050318,,,A*5A
$GPGSV,3,1,09,02,00,000,34,05,25,310,37,09,76,124,34,33,11,236,*7C
$GPGSV,3,2,09,37,24,197,,38,11,236,,39,24,192,,40,23,157,*70
$GPGSV,3,3,09,41,13,127,*43
$GLGSV,2,1,07,67,84,267,37,68,28,313,41,75,07,035,,76,53,049,*62
$GLGSV,2,2,07,77,57,191,,78,10,207,,83,06,291,31*57
$GNGSA,A,3,05,09,,,,,,,,,,,10.5,08.3,06.4*1D
$GNGSA,A,3,67,83,68,,,,,,,,,,10.5,08.3,06.4*15
$PORZD,A,087.5*36
$GPGGA,075654.00,5650.8156,N,03553.3282,E,1,05,08.3,129.8,M,16.0,M,,*55
$GPRMC,075654.00,A,5650.8156,N,03553.3282,E,00.00,000.0,050318,,,A*53
$GPGSV,3,1,09,02,00,000,33,05,25,310,37,09,76,124,34,33,11,236,*7B
$GPGSV,3,2,09,37,24,197,,38,11,236,,39,24,192,,40,23,157,*70
$GPGSV,3,3,09,41,13,127,*43
$GLGSV,2,1,07,67,84,267,37,68,28,313,40,75,07,035,,76,53,049,*63
$GLGSV,2,2,07,77,57,191,,78,10,207,,83,06,291,31*57
$GNGSA,A,3,05,09,,,,,,,,,,,10.5,08.3,06.4*1D
$GNGSA,A,3,67,83,68,,,,,,,,,,10.5,08.3,06.4*15
$PORZD,A,084.4*34
$GPGGA,075655.00,5650.8159,N,03553.3286,E,1,05,08.3,129.9,M,16.0,M,,*5E
$GPRMC,075655.00,A,5650.8159,N,03553.3286,E,00.00,000.0,050318,,,A*59
$GPGSV,3,1,09,02,00,000,32,05,25,310,36,09,76,124,33,33,11,236,*7C
$GPGSV,3,2,09,37,24,197,,38,11,236,,39,24,192,,40,23,157,*70
$GPGSV,3,3,09,41,13,127,*43
$GLGSV,2,1,07,67,84,266,37,68,28,313,40,75,07,035,,76,52,049,*63
$GLGSV,2,2,07,77,58,191,,78,10,207,,83,06,291,30*59
$GNGSA,A,3,05,09,,,,,,,,,,,10.5,08.3,06.4*1D
$GNGSA,A,3,67,83,68,,,,,,,,,,10.5,08.3,06.4*15
$PORZD,A,083.7*30
$GPGGA,075656.00,5650.8159,N,03553.3286,E,6,,,129.9,M,16.0,M,,*4A
$GPRMC,075656.00,V,5650.8159,N,03553.3286,E,00.00,000.0,050318,,,E*49
$GPGSV,3,1,09,02,00,000,33,05,25,310,37,09,76,124,33,33,11,236,*7C
$GPGSV,3,2,09,37,24,197,,38,11,236,,39,24,192,,40,23,157,*70
$GPGSV,3,3,09,41,13,127,*43
$GLGSV,2,1,07,67,84,266,37,68,28,313,40,75,07,035,,76,52,049,*63
$GLGSV,2,2,07,77,58,191,,78,10,207,,83,06,291,31*58
$GPGSA,A,1,,,,,,,,,,,,,10.5,08.3,06.4*0D
$PORZD,V,087.5*21
$GPGGA,075657.00,5650.8159,N,03553.3286,E,6,,,129.9,M,16.0,M,,*4B
$GPRMC,075657.00,V,5650.8159,N,03553.3286,E,00.00,000.0,050318,,,E*48
$GPGSV,3,1,09,02,00,000,33,05,25,310,37,09,76,124,33,33,11,236,*7C
$GPGSV,3,2,09,37,24,197,,38,11,236,,39,24,192,,40,23,157,*70
$GPGSV,3,3,09,41,13,127,*43
$GLGSV,2,1,07,67,84,266,37,68,28,313,40,75,07,035,,76,52,049,*63
$GLGSV,2,2,07,77,58,191,,78,10,207,,83,06,291,30*59
$GPGSA,A,1,,,,,,,,,,,,,10.5,08.3,06.4*0D
$PORZD,V,092.6*26
$GPGGA,075658.00,5650.8167,N,03553.3307,E,1,05,08.3,129.2,M,16.0,M,,*5D
$GPRMC,075658.00,A,5650.8167,N,03553.3307,E,00.00,000.0,050318,,,A*51
$GPGSV,3,1,09,02,00,000,33,05,25,310,38,09,76,124,33,33,11,236,*73
$GPGSV,3,2,09,37,24,197,,38,11,236,,39,24,192,,40,23,157,*70
$GPGSV,3,3,09,41,13,127,*43
$GLGSV,2,1,07,67,84,266,37,68,28,313,41,75,07,035,,76,52,049,*62
$GLGSV,2,2,07,77,58,191,,78,10,207,,83,06,291,31*58
$GNGSA,A,3,05,09,,,,,,,,,,,10.5,08.3,06.4*1D
$GNGSA,A,3,67,83,68,,,,,,,,,,10.5,08.3,06.4*15
$PORZD,A,092.8*3F
$GPGGA,075659.00,5650.8186,N,03553.3376,E,1,05,08.3,125.4,M,16.0,M,,*5F
$GPRMC,075659.00,A,5650.8186,N,03553.3376,E,11.28,068.7,050318,,,A*5A
$GPGSV,3,1,09,02,00,000,33,05,25,310,38,09,76,124,33,33,11,236,*73
$GPGSV,3,2,09,37,24,197,,38,11,236,,39,24,192,,40,23,157,*70
$GPGSV,3,3,09,41,13,127,*43
$GLGSV,2,1,07,67,84,266,37,68,28,313,40,75,07,035,,76,52,049,*63
$GLGSV,2,2,07,77,58,191,,78,10,207,,83,06,291,31*58
$GNGSA,A,3,05,09,,,,,,,,,,,10.5,08.3,06.4*1D
$GNGSA,A,3,67,83,68,,,,,,,,,,10.5,08.3,06.4*15
$PORZD,A,091.4*30
$GPGGA,075700.00,5650.8197,N,03553.3429,E,6,,,125.3,M,16.0,M,,*4F
$GPRMC,075700.00,V,5650.8197,N,03553.3429,E,11.28,068.7,050318,,,E*49
$GPGSV,3,1,09,02,00,000,33,05,25,310,38,09,76,124,33,33,11,236,*73
$GPGSV,3,2,09,37,24,197,,38,11,236,,39,24,192,,40,23,157,*70
$GPGSV,3,3,09,41,13,127,*43
$GLGSV,2,1,07,67,84,266,37,68,28,313,41,75,07,035,,76,52,049,*62
$GLGSV,2,2,07,77,58,191,,78,10,207,,83,06,291,31*58
$GPGSA,A,1,,,,,,,,,,,,,10.5,08.3,06.4*0D
$PORZD,V,101.5*2E
$GPGBS,075700.00,,,,,,,*6A
$GPGGA,075701.00,5650.8205,N,03553.3465,E,1,05,08.3,123.8,M,16.0,M,,*54
$GPRMC,075701.00,A,5650.8205,N,03553.3465,E,00.00,000.0,050318,,,A*58
$GPGSV,3,1,09,02,00,000,33,05,25,310,38,09,76,124,33,33,11,236,*73
$GPGSV,3,2,09,37,24,197,,38,11,236,,39,24,192,,40,23,157,*70
$GPGSV,3,3,09,41,13,127,*43
$GLGSV,2,1,07,67,84,266,37,68,28,313,41,75,07,035,,76,52,049,*62
$GLGSV,2,2,07,77,58,191,,78,10,207,,83,06,291,31*58
$GNGSA,A,3,05,09,,,,,,,,,,,10.5,08.3,06.4*1D
$GNGSA,A,3,67,83,68,,,,,,,,,,10.5,08.3,06.4*15
$PORZD,A,106.7*3C
$GPGGA,075702.00,5650.8205,N,03553.3465,E,6,,,123.8,M,16.0,M,,*40
$GPRMC,075702.00,V,5650.8205,N,03553.3465,E,00.00,000.0,050318,,,E*48
$GPGSV,3,1,09,02,00,000,33,05,25,310,38,09,76,124,33,33,11,236,*73
$GPGSV,3,2,09,37,24,197,,38,11,236,,39,24,192,,40,23,157,*70
$GPGSV,3,3,09,41,13,127,*43
$GLGSV,2,1,07,67,84,266,37,68,28,313,40,75,07,035,,76,52,049,*63
$GLGSV,2,2,07,77,58,191,,78,10,207,,83,06,291,31*58
$GPGSA,A,1,,,,,,,,,,,,,10.5,08.3,06.4*0D
$PORZD,V,110.9*22
$GPGGA,075703.00,5650.8205,N,03553.3465,E,0,,,123.8,M,16.0,M,,*47
$GPRMC,075703.00,V,5650.8205,N,03553.3465,E,00.00,000.0,050318,,,N*42
$GPGSV,3,1,09,02,00,000,32,05,25,310,38,09,76,124,34,33,11,236,*75
$GPGSV,3,2,09,37,24,197,,38,11,236,,39,24,192,,40,23,157,*70
$GPGSV,3,3,09,41,13,127,*43
$GLGSV,2,1,07,67,84,266,37,68,28,313,41,75,07,035,,76,52,049,*62
$GLGSV,2,2,07,77,58,191,,78,10,207,,83,06,291,30*59
$GPGSA,A,1,,,,,,,,,,,,,10.5,08.3,06.4*0D
$PORZD,V,116.6*2B
$GPGGA,075704.00,5650.8210,N,03553.3497,E,1,05,08.3,122.3,M,16.0,M,,*52
$GPRMC,075704.00,A,5650.8210,N,03553.3497,E,00.00,000.0,050318,,,A*54
$GPGSV,3,1,09,02,00,000,33,05,25,310,38,09,76,124,34,33,11,236,*74
$GPGSV,3,2,09,37,24,197,,38,11,236,,39,24,192,,40,23,157,*70
$GPGSV,3,3,09,41,13,127,*43
$GLGSV,2,1,07,67,84,266,37,68,28,313,41,75,07,035,,76,52,049,*62
$GLGSV,2,2,07,77,58,191,,78,10,207,,83,06,291,30*59
$GNGSA,A,3,05,09,,,,,,,,,,,10.5,08.3,06.4*1D
$GNGSA,A,3,67,83,68,,,,,,,,,,10.5,08.3,06.4*15
$PORZD,A,116.5*3F
$GPGGA,075705.00,5650.8213,N,03553.3516,E,1,05,08.3,121.5,M,16.0,M,,*5D
$GPRMC,075705.00,A,5650.8213,N,03553.3516,E,00.00,000.0,050318,,,A*5E
$GPGSV,3,1,09,02,00,000,32,05,25,310,39,09,76,124,35,33,11,236,*75
$GPGSV,3,2,09,37,24,197,,38,11,236,,39,24,192,,40,23,157,*70
$GPGSV,3,3,09,41,13,127,*43
$GLGSV,2,1,07,67,84,266,37,68,28,313,41,75,07,035,,76,52,049,*62
$GLGSV,2,2,07,77,58,191,,78,10,207,,83,06,291,30*59
$GNGSA,A,3,05,09,,,,,,,,,,,10.5,08.3,06.4*1D
$GNGSA,A,3,67,83,68,,,,,,,,,,10.5,08.3,06.4*15
$PORZD,A,115.3*3A
$GPGGA,075706.00,5650.8214,N,03553.3533,E,1,05,08.3,120.8,M,16.0,M,,*52
$GPRMC,075706.00,A,5650.8214,N,03553.3533,E,00.00,000.0,050318,,,A*5D
$GPGSV,3,1,09,02,00,000,32,05,25,310,38,09,76,124,36,33,11,236,*77
$GPGSV,3,2,09,37,24,197,,38,11,236,,39,24,192,,40,23,157,*70
$GPGSV,3,3,09,41,13,127,*43
$GLGSV,2,1,07,67,84,266,38,68,28,313,41,75,07,035,,76,52,049,*6D
$GLGSV,2,2,07,77,58,191,,78,10,207,,83,06,291,30*59
$GNGSA,A,3,05,09,,,,,,,,,,,10.5,08.3,06.4*1D
$GNGSA,A,3,67,83,68,,,,,,,,,,10.5,08.3,06.4*15
$PORZD,A,105.9*31
$GPGGA,075707.00,5650.8209,N,03553.3544,E,1,05,08.3,119.3,M,16.0,M,,*5E
$GPRMC,075707.00,A,5650.8209,N,03553.3544,E,06.53,215.0,050318,,,A*56
$GPGSV,3,1,09,02,00,000,32,05,25,310,39,09,76,124,36,33,11,236,*76
$GPGSV,3,2,09,37,24,197,,38,11,236,,39,24,192,,40,23,157,*70
$GPGSV,3,3,09,41,13,127,*43
$GLGSV,2,1,07,67,84,266,37,68,28,313,41,75,07,035,,76,52,049,*62
$GLGSV,2,2,07,77,58,191,,78,10,207,,83,06,291,30*59
$GNGSA,A,3,05,09,,,,,,,,,,,10.5,08.3,06.4*1D
$GNGSA,A,3,67,83,68,,,,,,,,,,10.5,08.3,06.4*15
$PORZD,A,102.7*38
$GPGGA,075708.00,5650.8202,N,03553.3557,E,1,05,08.3,118.2,M,16.0,M,,*58
$GPRMC,075708.00,A,5650.8202,N,03553.3557,E,00.00,215.0,050318,,,A*50
$GPGSV,3,1,09,02,00,000,32,05,25,310,39,09,76,124,35,33,11,236,*75
$GPGSV,3,2,09,37,24,197,,38,11,236,,39,24,192,,40,23,157,*70
$GPGSV,3,3,09,41,13,127,*43
$GLGSV,2,1,07,67,84,266,37,68,28,313,40,75,07,035,,76,52,049,*63
$GLGSV,2,2,07,77,58,191,,78,10,207,,83,06,291,30*59
$GNGSA,A,3,05,09,,,,,,,,,,,10.5,08.3,06.4*1D
$GNGSA,A,3,67,83,68,,,,,,,,,,10.5,08.3,06.4*15
$PORZD,A,097.8*3A
$GPGGA,075709.00,5650.8202,N,03553.3577,E,1,05,08.3,116.7,M,16.0,M,,*50
$GPRMC,075709.00,A,5650.8202,N,03553.3577,E,03.32,261.2,050318,,,A*50
$GPGSV,3,1,09,02,00,000,31,05,25,310,38,09,76,124,36,33,11,236,*74
$GPGSV,3,2,09,37,24,197,,38,11,236,,39,24,192,,40,23,157,*70
$GPGSV,3,3,09,41,13,127,*43
$GLGSV,2,1,07,67,84,266,38,68,28,313,40,75,07,035,,76,52,049,*6C
$GLGSV,2,2,07,77,58,191,,78,10,207,,83,06,291,29*51
$GNGSA,A,3,05,09,,,,,,,,,,,10.5,08.3,06.4*1D
$GNGSA,A,3,67,83,68,,,,,,,,,,10.5,08.3,06.4*15
$PORZD,A,096.9*3A
$GPGGA,075710.00,5650.8198,N,03553.3579,E,1,05,08.3,116.9,M,16.0,M,,*58
$GPRMC,075710.00,A,5650.8198,N,03553.3579,E,07.43,239.0,050318,,,A*5B
$GPGSV,3,1,09,02,00,000,31,05,25,310,38,09,76,124,36,33,11,236,*74
$GPGSV,3,2,09,37,24,197,,38,11,236,,39,24,192,,40,23,157,*70
$GPGSV,3,3,09,41,13,127,*43
$GLGSV,2,1,07,67,84,265,37,68,28,313,40,75,07,035,,76,52,049,*60
$GLGSV,2,2,07,77,58,191,,78,10,207,,83,06,291,29*51
$GNGSA,A,3,05,09,,,,,,,,,,,10.5,08.3,06.4*1D
$GNGSA,A,3,67,83,68,,,,,,,,,,10.5,08.3,06.4*15
$PORZD,A,101.5*39
$GNGBS,075710.00,,,,,,,*75
$GPGGA,075711.00,5650.8191,N,03553.3581,E,1,05,08.3,115.3,M,16.0,M,,*5E
$GPRMC,075711.00,A,5650.8191,N,03553.3581,E,03.72,234.5,050318,,,A*5A
$GPGSV,3,1,09,02,00,000,31,05,25,310,38,09,76,124,36,33,11,236,*74
$GPGSV,3,2,09,37,24,197,,38,11,236,,39,24,192,,40,23,157,*70
$GPGSV,3,3,09,41,13,127,*43
$GLGSV,2,1,07,67,84,265,38,68,28,313,40,75,07,035,,76,52,049,*6F
$GLGSV,2,2,07,77,58,191,,78,10,207,,83,06,291,29*51
$GNGSA,A,3,05,09,,,,,,,,,,,10.5,08.3,06.4*1D
$GNGSA,A,3,67,83,68,,,,,,,,,,10.5,08.3,06.4*15
$PORZD,A,100.3*3E
$GPGGA,075712.00,5650.8191,N,03553.3607,E,1,05,08.3,112.9,M,16.0,M,,*5D
$GPRMC,075712.00,A,5650.8191,N,03553.3607,E,04.02,232.4,050318,,,A*53
$GPGSV,3,1,09,02,00,000,31,05,25,310,38,09,76,124,36,33,11,236,*74
$GPGSV,3,2,09,37,24,197,,38,11,236,,39,24,192,,40,23,157,*70
$GPGSV,3,3,09,41,13,127,*43
$GLGSV,2,1,07,67,84,265,38,68,28,313,39,75,07,035,,76,52,049,*61
$GLGSV,2,2,07,77,58,191,,78,10,207,,83,06,291,29*51
$GNGSA,A,3,05,09,,,,,,,,,,,10.5,08.3,06.4*1D
$GNGSA,A,3,67,83,68,,,,,,,,,,10.5,08.3,06.4*15
$PORZD,A,103.3*3D
$GPGGA,075713.00,5650.8191,N,03553.3628,E,1,05,08.3,110.7,M,16.0,M,,*5D
$GPRMC,075713.00,A,5650.8191,N,03553.3628,E,02.87,229.7,050318,,,A*5D
$GPGSV,3,1,09,02,00,000,31,05,25,310,38,09,76,124,37,33,11,236,*75
$GPGSV,3,2,09,37,24,197,,38,11,236,,39,24,192,,40,23,157,*70
$GPGSV,3,3,09,41,13,127,*43
$GLGSV,2,1,07,67,84,265,38,68,28,313,39,75,07,035,,76,52,049,*61
$GLGSV,2,2,07,77,58,191,,78,10,207,,83,06,291,29*51
$GNGSA,A,3,05,09,,,,,,,,,,,10.5,08.3,06.4*1D
$GNGSA,A,3,67,83,68,,,,,,,,,,10.5,08.3,06.4*15
$PORZD,A,113.2*3D
$GPGGA,075714.00,5650.8200,N,03553.3594,E,1,05,08.3,115.1,M,16.0,M,,*56
$GPRMC,075714.00,A,5650.8200,N,03553.3594,E,27.35,264.8,050318,,,A*5D
$GPGSV,3,1,09,02,00,000,31,05,25,310,39,09,76,124,38,33,11,236,*7B
$GPGSV,3,2,09,37,24,197,,38,11,236,,39,24,192,,40,23,157,*70
$GPGSV,3,3,09,41,13,127,*43
$GLGSV,2,1,07,67,84,265,38,68,28,313,39,75,07,035,,76,52,049,*61
$GLGSV,2,2,07,77,58,191,,78,10,207,,83,06,291,29*51
$GNGSA,A,3,05,09,,,,,,,,,,,10.5,08.3,06.4*1D
$GNGSA,A,3,67,83,68,,,,,,,,,,10.5,08.3,06.4*15
$PORZD,A,127.0*38
$GPGGA,075715.00,5650.8194,N,03553.3456,E,6,,,115.9,M,16.0,M,,*49
$GPRMC,075715.00,V,5650.8194,N,03553.3456,E,27.35,264.8,050318,,,E*4E
$GPGSV,3,1,09,02,00,000,31,05,25,310,39,09,76,124,41,33,11,236,*75
$GPGSV,3,2,09,37,24,197,,38,11,236,,39,24,192,,40,23,157,*70
$GPGSV,3,3,09,41,13,127,*43
$GLGSV,2,1,07,67,84,265,38,68,28,313,39,75,07,035,,76,52,049,*61
$GLGSV,2,2,07,77,58,191,,78,10,207,,83,06,291,29*51
$GPGSA,A,1,,,,,,,,,,,,,10.4,08.3,06.4*0C
$PORZD,V,133.3*29
$GPGGA,075716.00,5650.8188,N,03553.3318,E,6,,,115.9,M,16.0,M,,*4A
$GPRMC,075716.00,V,5650.8188,N,03553.3318,E,27.35,264.8,050318,,,E*4D
$GPGSV,3,1,09,02,00,000,32,05,25,310,39,09,76,124,40,33,11,236,*77
$GPGSV,3,2,09,37,24,197,,38,11,236,,39,24,192,,40,23,157,*70
$GPGSV,3,3,09,41,13,127,*43
$GLGSV,2,1,07,67,84,265,38,68,28,313,38,75,07,035,,76,52,049,*60
$GLGSV,2,2,07,77,58,191,,78,10,207,,83,06,291,29*51
$GPGSA,A,1,,,,,,,,,,,,,10.4,08.2,06.4*0D
$PORZD,V,140.9*27
$GPGGA,075717.00,5650.8182,N,03553.3180,E,6,,,115.9,M,16.0,M,,*42
$GPRMC,075717.00,V,5650.8182,N,03553.3180,E,27.35,264.8,050318,,,E*45
$GPGSV,3,1,09,02,00,000,31,05,25,310,39,09,76,124,36,33,11,236,*75
$GPGSV,3,2,09,37,24,197,,38,11,236,,39,24,192,,40,23,157,*70
$GPGSV,3,3,09,41,13,127,*43
$GLGSV,2,1,07,67,84,265,38,68,28,313,38,75,07,035,,76,52,049,*60
$GLGSV,2,2,07,77,58,191,,78,10,207,,83,06,291,29*51
$GPGSA,A,1,,,,,,,,,,,,,10.4,08.2,06.4*0D
$PORZD,V,149.8*2F
$GPGGA,075718.00,5650.8502,N,03553.4817,E,1,05,08.2,012.2,M,16.0,M,,*5A
$GPRMC,075718.00,A,5650.8502,N,03553.4817,E,56.69,082.3,050318,,,A*5B
$GPGSV,3,1,09,02,00,000,31,05,25,310,39,09,76,124,37,33,11,236,*74
$GPGSV,3,2,09,37,24,197,,38,11,236,,39,24,192,,40,23,157,*70
$GPGSV,3,3,09,41,13,127,*43
$GLGSV,2,1,07,67,84,265,38,68,28,313,38,75,07,035,,76,52,049,*60
$GLGSV,2,2,07,77,58,191,,78,10,207,,83,06,291,29*51
$GNGSA,A,3,05,09,,,,,,,,,,,10.4,08.2,06.4*1D
$GNGSA,A,3,67,83,68,,,,,,,,,,10.4,08.2,06.4*15
$PORZD,A,147.4*3A
$GPGGA,075719.00,5650.8523,N,03553.5102,E,6,,,-13.3,M,16.0,M,,*5F
$GPRMC,075719.00,V,5650.8523,N,03553.5102,E,56.69,082.3,050318,,,E*46
$GPGSV,3,1,09,02,00,000,31,05,25,310,38,09,76,124,30,33,11,236,*72
$GPGSV,3,2,09,37,24,197,,38,11,236,,39,24,192,,40,23,157,*70
$GPGSV,3,3,09,41,13,127,*43
$GLGSV,2,1,07,67,84,265,38,68,28,313,38,75,07,035,,76,52,049,*60
$GLGSV,2,2,07,77,58,191,,78,10,207,,83,06,291,29*51
$GPGSA,A,1,,,,,,,,,,,,,10.4,08.2,06.4*0D
$PORZD,V,149.6*21
$GPGGA,075720.00,5650.8543,N,03553.5387,E,6,,,-38.8,M,16.0,M,,*5E
$GPRMC,075720.00,V,5650.8543,N,03553.5387,E,56.69,082.3,050318,,,E*45
$GPGSV,3,1,09,02,00,000,30,05,25,310,37,09,76,124,34,33,11,236,*78
$GPGSV,3,2,09,37,24,197,,38,11,236,,39,24,192,,40,23,157,*70
$GPGSV,3,3,09,41,13,127,*43
$GLGSV,2,1,07,67,84,265,38,68,28,313,37,75,07,035,,76,52,049,*6F
$GLGSV,2,2,07,77,58,191,,78,10,207,,83,06,291,29*51
$GPGSA,A,1,,,,,,,,,,,,,10.4,08.2,06.4*0D
$PORZD,V,153.1*2D
$GPGBS,075720.00,,,,,,,*68
$GPGGA,075721.00,5650.8564,N,03553.5672,E,6,,,-38.8,M,16.0,M,,*55
$GPRMC,075721.00,V,5650.8564,N,03553.5672,E,56.69,082.3,050318,,,E*4E
$GPGSV,3,1,09,02,00,000,30,05,25,310,37,09,76,124,38,33,11,236,*74
$GPGSV,3,2,09,37,24,197,,38,11,236,,39,24,192,,40,23,157,*70
$GPGSV,3,3,09,41,13,127,*43
$GLGSV,2,1,07,67,84,265,38,68,28,313,37,75,07,035,,76,52,049,*6F
$GLGSV,2,2,07,77,58,191,,78,10,207,,83,06,291,29*51
$GPGSA,A,1,,,,,,,,,,,,,10.4,08.2,06.4*0D
$PORZD,V,157.9*21
$GPGGA,075722.00,5650.8564,N,03553.5672,E,0,,,-38.8,M,16.0,M,,*50
$GPRMC,075722.00,V,5650.8564,N,03553.5672,E,00.00,000.0,050318,,,N*43
$GPGSV,3,1,09,02,00,000,33,05,25,310,38,09,76,124,38,33,11,236,*78
$GPGSV,3,2,09,37,24,197,,38,11,236,,39,24,192,,40,23,157,*70
$GPGSV,3,3,09,41,13,127,*43
$GLGSV,2,1,07,67,84,265,38,68,28,313,38,75,07,035,,76,52,049,*60
$GLGSV,2,2,07,77,58,191,,78,10,207,,83,06,291,29*51
$GPGSA,A,1,,,,,,,,,,,,,10.4,08.2,06.4*0D
$PORZD,V,164.1*29
$GPGGA,075723.00,5650.8564,N,03553.5672,E,0,,,-38.8,M,16.0,M,,*51
$GPRMC,075723.00,V,5650.8564,N,03553.5672,E,00.00,000.0,050318,,,N*42
$GPGSV,3,1,09,02,00,000,38,05,25,310,38,09,76,124,39,33,11,236,*72
$GPGSV,3,2,09,37,24,197,,38,11,236,,39,24,192,,40,23,157,*70
$GPGSV,3,3,09,41,13,127,*43
$GLGSV,2,1,07,67,84,265,38,68,28,313,37,75,07,035,,76,52,049,*6F
$GLGSV,2,2,07,77,58,191,,78,10,207,,83,06,291,30*59
$GPGSA,A,1,,,,,,,,,,,,,10.4,08.2,06.3*0A
$PORZD,V,171.7*2B
$GPGGA,075724.00,5650.8564,N,03553.5672,E,0,,,-38.8,M,16.0,M,,*56
$GPRMC,075724.00,V,5650.8564,N,03553.5672,E,00.00,000.0,050318,,,N*45
$GPGSV,3,1,09,02,00,000,38,05,25,310,38,09,76,124,39,33,11,236,*72
$GPGSV,3,2,09,37,24,197,,38,11,236,,39,24,192,,40,23,157,*70
$GPGSV,3,3,09,41,13,127,*43
$GLGSV,2,1,07,67,84,265,38,68,28,313,38,75,07,035,,76,52,049,*60
$GLGSV,2,2,07,77,58,191,,78,10,207,,83,06,291,30*59
$GPGSA,A,1,,,,,,,,,,,,,10.4,08.2,06.3*0A
$PORZD,V,180.6*24
$GPGGA,075725.00,5650.8564,N,03553.5672,E,0,,,-38.8,M,16.0,M,,*57
$GPRMC,075725.00,V,5650.8564,N,03553.5672,E,00.00,000.0,050318,,,N*44
$GPGSV,3,1,09,02,00,000,40,05,25,310,38,09,75,124,39,33,11,236,*7E
$GPGSV,3,2,09,37,24,197,,38,11,236,,39,24,192,,40,23,157,*70
$GPGSV,3,3,09,41,13,127,*43
$GLGSV,2,1,07,67,84,264,38,68,28,313,38,75,07,035,,76,52,049,*61
$GLGSV,2,2,07,77,57,191,,78,10,207,,83,06,291,30*56
$GPGSA,A,1,,,,,,,,,,,,,10.4,08.2,06.3*0A
$PORZD,V,190.9*2A
$GPGGA,075726.00,5650.8564,N,03553.5672,E,0,,,-38.8,M,16.0,M,,*54
$GPRMC,075726.00,V,5650.8564,N,03553.5672,E,00.00,000.0,050318,,,N*47
$GPGSV,3,1,09,02,00,000,39,05,25,310,38,09,75,124,39,33,11,236,*70
$GPGSV,3,2,09,37,24,197,,38,11,236,,39,24,192,,40,23,157,*70
$GPGSV,3,3,09,41,13,127,*43
$GLGSV,2,1,07,67,84,264,37,68,28,313,37,75,07,035,,76,52,049,*61
$GLGSV,2,2,07,77,57,191,,78,10,207,,83,06,291,30*56
$GPGSA,A,1,,,,,,,,,,,,,10.4,08.2,06.3*0A
$PORZD,V,999.9*2B
$GPGGA,075727.00,5650.8564,N,03553.5672,E,0,,,-38.8,M,16.0,M,,*55
$GPRMC,075727.00,V,5650.8564,N,03553.5672,E,00.00,000.0,050318,,,N*46
$GPGSV,3,1,09,02,00,000,39,05,25,310,38,09,75,124,39,33,11,236,*70
$GPGSV,3,2,09,37,24,197,,38,11,236,,39,24,192,,40,23,157,*70
$GPGSV,3,3,09,41,13,127,*43
$GLGSV,2,1,07,67,84,264,38,68,28,313,38,75,07,035,,76,52,049,*61
$GLGSV,2,2,07,77,57,191,,78,10,207,,83,06,291,30*56
$GPGSA,A,1,,,,,,,,,,,,,10.4,08.2,06.3*0A
$PORZD,V,999.9*2B
$GPGGA,075728.00,5650.8564,N,03553.5672,E,0,,,-38.8,M,16.0,M,,*5A
$GPRMC,075728.00,V,5650.8564,N,03553.5672,E,00.00,000.0,050318,,,N*49
$GPGSV,3,1,09,02,00,000,39,05,25,310,37,09,75,124,39,33,11,236,*7F
$GPGSV,3,2,09,37,24,197,,38,11,236,,39,24,192,,40,23,157,*70
$GPGSV,3,3,09,41,13,127,*43
$GLGSV,2,1,07,67,84,264,38,68,28,313,38,75,07,035,,76,52,049,*61
$GLGSV,2,2,07,77,57,191,,78,10,207,,83,06,291,30*56
$GPGSA,A,1,,,,,,,,,,,,,10.4,08.2,06.3*0A
$PORZD,V,999.9*2B
$GPGGA,075729.00,5650.8564,N,03553.5672,E,0,,,-38.8,M,16.0,M,,*5B
$GPRMC,075729.00,V,5650.8564,N,03553.5672,E,00.00,000.0,050318,,,N*48
$GPGSV,3,1,09,02,00,000,01,05,25,310,37,09,75,124,01,33,11,236,*7F
$GPGSV,3,2,09,37,24,197,,38,11,236,,39,24,192,,40,23,157,*70
$GPGSV,3,3,09,41,13,127,*43
$GLGSV,2,1,07,67,84,264,38,68,28,313,38,75,07,035,,76,52,049,*61
$GLGSV,2,2,07,77,57,191,,78,10,207,,83,06,291,30*56
$GPGSA,A,1,,,,,,,,,,,,,00.0,00.0,00.0*00
$PORZD,V,999.9*2B
$GPGGA,075730.00,5650.8564,N,03553.5672,E,0,,,-38.8,M,16.0,M,,*53
$GPRMC,075730.00,V,5650.8564,N,03553.5672,E,00.00,000.0,050318,,,N*40
$GPGSV,3,1,09,02,00,000,34,05,25,310,37,09,75,124,35,33,11,236,*7E
$GPGSV,3,2,09,37,24,197,,38,11,236,,39,24,192,,40,23,157,*70
$GPGSV,3,3,09,41,13,127,*43
$GLGSV,2,1,07,67,84,264,38,68,28,313,38,75,07,035,,76,52,049,*61
$GLGSV,2,2,07,77,57,191,,78,10,207,,83,06,291,30*56
$GPGSA,A,1,,,,,,,,,,,,,10.4,08.2,06.3*0A
$PORZD,V,999.9*2B
$GPGBS,075730.00,,,,,,,*69
$GPGGA,075731.00,5650.8564,N,03553.5672,E,0,,,-38.8,M,16.0,M,,*52
$GPRMC,075731.00,V,5650.8564,N,03553.5672,E,00.00,000.0,050318,,,N*41
$GPGSV,3,1,09,02,00,000,01,05,25,310,37,09,75,124,01,33,11,236,*7F
$GPGSV,3,2,09,37,24,197,,38,11,236,,39,24,192,,40,23,157,*70
$GPGSV,3,3,09,41,13,127,*43
$GLGSV,2,1,07,67,84,264,38,68,28,313,38,75,07,035,,76,52,049,*61
$GLGSV,2,2,07,77,57,191,,78,10,207,,83,06,291,31*57
$GPGSA,A,1,,,,,,,,,,,,,00.0,00.0,00.0*00
$PORZD,V,999.9*2B
$GPGGA,075732.00,5650.8564,N,03553.5672,E,0,,,-38.8,M,16.0,M,,*51
$GPRMC,075732.00,V,5650.8564,N,03553.5672,E,00.00,000.0,050318,,,N*42
$GPGSV,3,1,09,02,00,000,38,05,25,310,37,09,75,124,01,33,11,236,*75
$GPGSV,3,2,09,37,24,197,,38,11,236,,39,24,192,,40,23,157,*70
$GPGSV,3,3,09,41,13,127,*43
$GLGSV,2,1,07,67,84,264,37,68,28,313,38,75,07,035,,76,52,049,24*68
$GLGSV,2,2,07,77,57,191,,78,10,207,,83,06,291,32*54
$GPGSA,A,1,,,,,,,,,,,,,00.0,00.0,00.0*00
$PORZD,V,999.9*2B
$GPGGA,075733.00,5650.8564,N,03553.5672,E,0,,,-38.8,M,16.0,M,,*50
$GPRMC,075733.00,V,5650.8564,N,03553.5672,E,00.00,000.0,050318,,,N*43
$GPGSV,3,1,09,02,00,000,01,05,25,310,37,09,75,124,01,33,11,236,*7F
$GPGSV,3,2,09,37,24,197,,38,11,236,,39,24,192,,40,23,157,*70
$GPGSV,3,3,09,41,13,127,*43
$GLGSV,2,1,07,67,84,264,38,68,28,313,38,75,07,035,,76,52,049,24*67
$GLGSV,2,2,07,77,57,191,,78,10,207,,83,06,291,31*57
$GPGSA,A,1,,,,,,,,,,,,,00.0,00.0,00.0*00
$PORZD,V,999.9*2B
$GPGGA,075734.00,5650.8564,N,03553.5672,E,0,,,-38.8,M,16.0,M,,*57
$GPRMC,075734.00,V,5650.8564,N,03553.5672,E,00.00,000.0,050318,,,N*44
$GPGSV,3,1,09,02,00,000,29,05,25,310,36,09,75,124,01,33,11,236,*74
$GPGSV,3,2,09,37,24,197,,38,11,236,,39,24,192,,40,23,157,*70
$GPGSV,3,3,09,41,13,127,*43
$GLGSV,2,1,07,67,84,264,37,68,28,313,38,75,07,035,,76,52,049,24*68
$GLGSV,2,2,07,77,57,191,,78,10,207,,83,06,291,31*57
$GPGSA,A,1,,,,,,,,,,,,,00.0,00.0,00.0*00
$PORZD,V,999.9*2B
$GPGGA,075735.00,5650.8564,N,03553.5672,E,0,,,-38.8,M,16.0,M,,*56
$GPRMC,075735.00,V,5650.8564,N,03553.5672,E,00.00,000.0,050318,,,N*45
$GPGSV,3,1,09,02,00,000,01,05,25,310,36,09,75,124,01,33,11,236,*7E
$GPGSV,3,2,09,37,24,197,,38,11,236,,39,24,192,,40,23,157,*70
$GPGSV,3,3,09,41,13,127,*43
$GLGSV,2,1,07,67,84,264,37,68,28,313,38,75,07,035,,76,52,049,24*68
$GLGSV,2,2,07,77,57,191,,78,10,207,,83,06,291,31*57
$GPGSA,A,1,,,,,,,,,,,,,00.0,00.0,00.0*00
$PORZD,V,999.9*2B
$GPGGA,075736.00,5650.8564,N,03553.5672,E,0,,,-38.8,M,16.0,M,,*55
$GPRMC,075736.00,V,5650.8564,N,03553.5672,E,00.00,000.0,050318,,,N*46
$GPGSV,3,1,09,02,00,000,24,05,25,310,35,09,75,124,01,33,11,236,*7A
$GPGSV,3,2,09,37,24,197,,38,11,236,,39,24,192,,40,23,157,*70
$GPGSV,3,3,09,41,13,127,*43
$GLGSV,2,1,07,67,84,264,38,68,28,313,38,75,07,035,,76,52,049,25*66
$GLGSV,2,2,07,77,57,191,,78,10,207,,83,06,291,31*57
$GPGSA,A,1,,,,,,,,,,,,,00.0,00.0,00.0*00
$PORZD,V,999.9*2B
$GPGGA,075737.00,5650.8564,N,03553.5672,E,0,,,-38.8,M,16.0,M,,*54
$GPRMC,075737.00,V,5650.8564,N,03553.5672,E,00.00,000.0,050318,,,N*47
$GPGSV,3,1,09,02,00,000,01,05,25,310,35,09,75,124,,33,11,236,*7C
$GPGSV,3,2,09,37,24,197,,38,11,236,,39,24,192,,40,23,157,*70
$GPGSV,3,3,09,41,13,127,*43
$GLGSV,2,1,07,67,84,264,38,68,28,313,38,75,07,035,,76,52,049,25*66
$GLGSV,2,2,07,77,57,191,,78,10,207,,83,06,291,32*54
$GPGSA,A,1,,,,,,,,,,,,,00.0,00.0,00.0*00
$PORZD,V,999.9*2B
$GPGGA,075738.00,5650.8564,N,03553.5672,E,0,,,-38.8,M,16.0,M,,*5B
$GPRMC,075738.00,V,5650.8564,N,03553.5672,E,00.00,000.0,050318,,,N*48
$GPGSV,3,1,09,02,00,000,01,05,25,310,36,09,75,124,,33,11,236,*7F
$GPGSV,3,2,09,37,24,197,,38,11,236,,39,24,192,,40,23,157,*70
$GPGSV,3,3,09,41,13,127,*43
$GLGSV,2,1,07,67,84,264,38,68,28,313,38,75,07,035,,76,52,049,25*66
$GLGSV,2,2,07,77,57,191,,78,10,207,,83,06,291,31*57
$GPGSA,A,1,,,,,,,,,,,,,00.0,00.0,00.0*00
$PORZD,V,999.9*2B
$GPGGA,075739.00,5650.8564,N,03553.5672,E,0,,,-38.8,M,16.0,M,,*5A
$GPRMC,075739.00,V,5650.8564,N,03553.5672,E,00.00,000.0,050318,,,N*49
$GPGSV,3,1,09,02,00,000,01,05,25,310,36,09,75,124,,33,11,236,*7F
$GPGSV,3,2,09,37,24,197,,38,11,236,,39,24,192,,40,23,157,*70
$GPGSV,3,3,09,41,13,127,*43
$GLGSV,2,1,07,67,84,264,38,68,28,313,38,75,07,035,,76,52,049,25*66
$GLGSV,2,2,07,77,57,191,,78,10,207,,83,06,291,31*57
$GPGSA,A,1,,,,,,,,,,,,,00.0,00.0,00.0*00
$PORZD,V,999.9*2B
$GPGGA,075740.00,5650.8564,N,03553.5672,E,0,,,-38.8,M,16.0,M,,*54
$GPRMC,075740.00,V,5650.8564,N,03553.5672,E,00.00,000.0,050318,,,N*47
$GPGSV,3,1,09,02,00,000,01,05,25,310,36,09,75,124,,33,11,236,*7F
$GPGSV,3,2,09,37,24,197,,38,11,236,,39,24,192,,40,23,157,*70
$GPGSV,3,3,09,41,13,127,*43
$GLGSV,2,1,07,67,84,262,38,68,28,313,38,75,06,035,,76,52,049,24*60
$GLGSV,2,2,07,77,58,191,,78,10,207,,83,06,290,32*5A
$GPGSA,A,1,,,,,,,,,,,,,00.0,00.0,00.0*00
$PORZD,V,999.9*2B
$GPGBS,075740.00,,,,,,,*6E
$GPGGA,075741.00,5650.8564,N,03553.5672,E,0,,,-38.8,M,16.0,M,,*55
$GPRMC,075741.00,V,5650.8564,N,03553.5672,E,00.00,000.0,050318,,,N*46
$GPGSV,3,1,09,02,00,000,01,05,25,310,36,09,75,124,,33,11,236,*7F
$GPGSV,3,2,09,37,24,197,,38,11,236,,39,24,192,,40,23,157,*70
$GPGSV,3,3,09,41,13,127,*43
$GLGSV,2,1,07,67,84,262,38,68,28,313,38,75,06,035,,76,52,049,25*61
$GLGSV,2,2,07,77,58,191,,78,10,207,,83,06,290,31*59
$GPGSA,A,1,,,,,,,,,,,,,00.0,00.0,00.0*00
$PORZD,V,999.9*2B
$GPGGA,075742.00,5650.8564,N,03553.5672,E,0,,,-38.8,M,16.0,M,,*56
$GPRMC,075742.00,V,5650.8564,N,03553.5672,E,00.00,000.0,050318,,,N*45
$GPGSV,3,1,09,02,00,000,17,05,25,310,37,09,75,124,,33,11,236,*79
$GPGSV,3,2,09,37,24,197,,38,11,236,,39,24,192,,40,23,157,*70
$GPGSV,3,3,09,41,13,127,*43
$GLGSV,2,1,07,67,84,262,38,68,28,313,38,75,06,035,,76,52,049,26*62
$GLGSV,2,2,07,77,58,191,,78,10,207,,83,06,290,32*5A
$GPGSA,A,1,,,,,,,,,,,,,00.0,00.0,00.0*00
$PORZD,V,999.9*2B
$GPGGA,075743.00,5650.8564,N,03553.5672,E,0,,,-38.8,M,16.0,M,,*57
$GPRMC,075743.00,V,5650.8564,N,03553.5672,E,00.00,000.0,050318,,,N*44
$GPGSV,3,1,09,02,00,000,01,05,25,310,36,09,75,124,,33,11,236,*7F
$GPGSV,3,2,09,37,24,197,,38,11,236,,39,24,192,,40,23,157,*70
$GPGSV,3,3,09,41,13,127,*43
$GLGSV,2,1,07,67,84,262,38,68,28,313,38,75,06,035,,76,52,049,25*61
$GLGSV,2,2,07,77,58,191,,78,10,207,,83,06,290,32*5A
$GPGSA,A,1,,,,,,,,,,,,,00.0,00.0,00.0*00
$PORZD,V,999.9*2B
$GPGGA,075744.00,5650.8564,N,03553.5672,E,0,,,-38.8,M,16.0,M,,*50
$GPRMC,075744.00,V,5650.8564,N,03553.5672,E,00.00,000.0,050318,,,N*43
$GPGSV,3,1,09,02,00,000,14,05,25,310,37,09,75,124,,33,11,236,*7A
$GPGSV,3,2,09,37,24,197,,38,11,236,,39,24,192,,40,23,157,*70
$GPGSV,3,3,09,41,13,127,*43
$GLGSV,2,1,07,67,84,262,38,68,28,313,38,75,06,035,,76,52,049,25*61
$GLGSV,2,2,07,77,58,191,,78,10,207,,83,06,290,32*5A
$GPGSA,A,1,,,,,,,,,,,,,00.0,00.0,00.0*00
$PORZD,V,999.9*2B
$GPGGA,075745.00,5650.8564,N,03553.5672,E,0,,,-38.8,M,16.0,M,,*51
$GPRMC,075745.00,V,5650.8564,N,03553.5672,E,00.00,000.0,050318,,,N*42
$GPGSV,3,1,09,02,00,000,01,05,25,310,37,09,75,124,,33,11,236,*7E
$GPGSV,3,2,09,37,24,197,,38,11,236,,39,24,192,,40,23,157,*70
$GPGSV,3,3,09,41,13,127,*43
$GLGSV,2,1,07,67,84,262,38,68,28,313,38,75,06,035,,76,52,049,25*61
$GLGSV,2,2,07,77,58,191,,78,10,207,,83,06,290,31*59
$GPGSA,A,1,,,,,,,,,,,,,00.0,00.0,00.0*00
$PORZD,V,999.9*2B
$GPGGA,075746.00,5650.8564,N,03553.5672,E,0,,,-38.8,M,16.0,M,,*52
$GPRMC,075746.00,V,5650.8564,N,03553.5672,E,00.00,000.0,050318,,,N*41
$GPGSV,3,1,09,02,00,000,01,05,25,310,37,09,75,124,,33,11,236,*7E
$GPGSV,3,2,09,37,24,197,,38,11,236,,39,24,192,,40,23,157,*70
$GPGSV,3,3,09,41,13,127,*43
$GLGSV,2,1,07,67,84,262,38,68,28,313,38,75,06,035,,76,52,049,26*62
$GLGSV,2,2,07,77,58,191,,78,10,207,,83,06,290,32*5A
$GPGSA,A,1,,,,,,,,,,,,,00.0,00.0,00.0*00
$PORZD,V,999.9*2B
$GPGGA,075747.00,5650.8564,N,03553.5672,E,0,,,-38.8,M,16.0,M,,*53
$GPRMC,075747.00,V,5650.8564,N,03553.5672,E,00.00,000.0,050318,,,N*40
$GPGSV,3,1,09,02,00,000,01,05,25,310,37,09,75,124,,33,11,236,*7E
$GPGSV,3,2,09,37,24,197,,38,11,236,,39,24,192,,40,23,157,*70
$GPGSV,3,3,09,41,13,127,*43
$GLGSV,2,1,07,67,84,262,38,68,28,313,38,75,06,035,,76,52,049,26*62
$GLGSV,2,2,07,77,58,191,,78,10,207,,83,06,290,32*5A
$GPGSA,A,1,,,,,,,,,,,,,00.0,00.0,00.0*00
$PORZD,V,999.9*2B
$GPGGA,075748.00,5650.8216,N,03553.2886,E,1,05,08.2,172.6,M,16.0,M,,*50
$GPRMC,075748.00,A,5650.8216,N,03553.2886,E,00.81,082.3,050318,,,A*57
$GPGSV,3,1,09,02,00,000,01,05,25,310,38,09,76,124,41,33,11,236,*77
$GPGSV,3,2,09,37,24,197,,38,11,236,,39,25,192,,40,23,157,*71
$GPGSV,3,3,09,41,13,127,*43
$GLGSV,2,1,07,67,84,262,38,68,29,313,39,75,07,035,,76,52,049,25*60
$GLGSV,2,2,07,77,58,191,,78,10,207,,83,06,290,32*5A
$GNGSA,A,3,09,05,,,,,,,,,,,10.3,08.2,06.3*1D
$GNGSA,A,3,67,83,68,,,,,,,,,,10.3,08.2,06.3*15
$PORZD,A,103.3*3D
$GPGGA,075749.00,5650.8228,N,03553.3002,E,1,05,08.2,163.6,M,16.0,M,,*59
$GPRMC,075749.00,A,5650.8228,N,03553.3002,E,00.00,082.3,050318,,,A*57
$GPGSV,3,1,09,02,00,000,01,05,25,310,38,09,76,124,41,33,11,236,*77
$GPGSV,3,2,09,37,24,197,,38,11,236,,39,25,192,,40,23,157,*71
$GPGSV,3,3,09,41,13,127,*43
$GLGSV,2,1,07,67,84,262,38,68,29,313,39,75,07,035,,76,52,049,26*63
$GLGSV,2,2,07,77,58,191,,78,10,207,30,83,06,290,32*59
$GNGSA,A,3,09,05,,,,,,,,,,,10.3,08.2,06.3*1D
$GNGSA,A,3,67,83,68,,,,,,,,,,10.3,08.2,06.3*15
$PORZD,A,079.2*30
$GPGGA,075750.00,5650.8225,N,03553.3046,E,1,05,08.2,158.9,M,16.0,M,,*5B
$GPRMC,075750.00,A,5650.8225,N,03553.3046,E,00.00,082.3,050318,,,A*52
$GPGSV,3,1,09,02,00,000,01,05,25,310,38,09,76,124,41,33,11,236,*77
$GPGSV,3,2,09,37,24,197,,38,11,236,,39,25,192,,40,23,157,*71
$GPGSV,3,3,09,41,13,127,*43
$GLGSV,2,1,07,67,84,262,38,68,29,313,39,75,07,035,,76,52,049,26*63
$GLGSV,2,2,07,77,58,191,,78,10,207,31,83,06,290,32*58
$GNGSA,A,3,09,05,,,,,,,,,,,10.3,08.2,06.3*1D
$GNGSA,A,3,67,83,68,,,,,,,,,,10.3,08.2,06.3*15
$PORZD,A,065.7*38
$GNGBS,075750.00,,,,,,,*71
$GPGGA,075751.00,5650.8224,N,03553.3051,E,1,05,08.1,158.4,M,16.0,M,,*53
$GPRMC,075751.00,A,5650.8224,N,03553.3051,E,01.50,087.6,050318,,,A*50
$GPGSV,2,1,08,05,25,310,38,09,76,124,41,33,11,236,,37,24,197,*79
$GPGSV,2,2,08,38,11,236,,39,25,192,,40,23,157,,41,13,127,*7F
$GLGSV,2,1,07,67,84,262,38,68,29,313,38,75,07,035,,76,52,049,26*62
$GLGSV,2,2,07,77,58,191,,78,10,207,24,83,06,290,32*5C
$GNGSA,A,3,09,05,,,,,,,,,,,10.3,08.1,06.3*1E
$GNGSA,A,3,67,83,68,,,,,,,,,,10.3,08.1,06.3*16
$PORZD,A,065.2*3D
$GPGGA,075752.00,5650.8223,N,03553.3057,E,1,05,08.1,158.1,M,16.0,M,,*54
$GPRMC,075752.00,A,5650.8223,N,03553.3057,E,00.00,087.6,050318,,,A*56
$GPGSV,2,1,08,05,25,310,39,09,76,124,41,33,11,236,,37,24,197,*78
$GPGSV,2,2,08,38,11,236,,39,25,192,,40,23,157,,41,13,127,*7F
$GLGSV,2,1,07,67,84,262,38,68,29,313,38,75,07,035,,76,52,049,26*62
$GLGSV,2,2,07,77,58,191,,78,10,207,30,83,06,290,33*58
$GNGSA,A,3,09,05,,,,,,,,,,,10.3,08.1,06.3*1E
$GNGSA,A,3,67,83,68,,,,,,,,,,10.3,08.1,06.3*16
$PORZD,A,067.6*3B
$GPGGA,075753.00,5650.8223,N,03553.3057,E,6,,,158.1,M,16.0,M,,*40
$GPRMC,075753.00,V,5650.8223,N,03553.3057,E,00.00,087.6,050318,,,E*44
$GPGSV,2,1,08,05,25,310,39,09,76,124,41,33,11,236,,37,24,197,*78
$GPGSV,2,2,08,38,11,236,,39,25,192,,40,23,157,,41,13,127,*7F
$GLGSV,2,1,07,67,84,262,38,68,29,313,38,75,07,035,,76,52,049,26*62
$GLGSV,2,2,07,77,58,191,,78,10,207,30,83,06,290,32*59
$GPGSA,A,1,,,,,,,,,,,,,10.3,08.1,06.3*0E
$PORZD,V,070.1*2D
$GPGGA,075754.00,5650.8223,N,03553.3057,E,6,,,158.1,M,16.0,M,,*47
$GPRMC,075754.00,V,5650.8223,N,03553.3057,E,00.00,087.6,050318,,,E*43
$GPGSV,2,1,08,05,25,310,39,09,76,124,41,33,11,236,,37,24,197,*78
$GPGSV,2,2,08,38,11,236,,39,25,192,,40,23,157,,41,13,127,*7F
$GLGSV,2,1,07,67,84,262,38,68,29,313,38,75,07,035,,76,52,049,26*62
$GLGSV,2,2,07,77,58,191,,78,10,207,30,83,06,290,33*58
$GPGSA,A,1,,,,,,,,,,,,,10.3,08.1,06.3*0E
$PORZD,V,074.0*28
$GPGGA,075755.00,5650.8217,N,03553.3128,E,1,05,08.1,154.2,M,16.0,M,,*52
$GPRMC,075755.00,A,5650.8217,N,03553.3128,E,00.00,087.6,050318,,,A*5F
$GPGSV,2,1,08,05,25,310,39,09,76,124,41,33,11,236,,37,24,197,*78
$GPGSV,2,2,08,38,11,236,,39,25,192,,40,23,157,,41,13,127,*7F
$GLGSV,2,1,07,67,84,261,38,68,29,313,39,75,07,035,,76,52,049,26*60
$GLGSV,2,2,07,77,58,191,,78,10,207,29,83,06,290,33*50
$GNGSA,A,3,09,05,,,,,,,,,,,10.3,08.1,06.3*1E
$GNGSA,A,3,67,83,68,,,,,,,,,,10.3,08.1,06.3*16
$PORZD,A,075.9*37
$GPGGA,075756.00,5650.8208,N,03553.3252,E,1,05,08.1,146.0,M,16.0,M,,*50
$GPRMC,075756.00,A,5650.8208,N,03553.3252,E,03.98,192.8,050318,,,A*55
$GPGSV,2,1,08,05,25,310,39,09,76,124,41,33,11,236,,37,24,197,*78
$GPGSV,2,2,08,38,11,236,,39,25,192,,40,23,157,,41,13,127,*7F
$GLGSV,2,1,07,67,84,261,37,68,29,313,38,75,07,035,,76,52,049,26*6E
$GLGSV,2,2,07,77,58,191,,78,10,207,29,83,06,290,32*51
$GNGSA,A,3,09,05,,,,,,,,,,,10.3,08.1,06.3*1E
$GNGSA,A,3,67,83,68,,,,,,,,,,10.3,08.1,06.3*16
$PORZD,A,073.6*3E
$GPGGA,075757.00,5650.8201,N,03553.3344,E,1,05,08.1,138.7,M,16.0,M,,*50
$GPRMC,075757.00,A,5650.8201,N,03553.3344,E,00.00,192.8,050318,,,A*59
$GPGSV,2,1,08,05,25,310,39,09,76,124,41,33,11,236,,37,24,197,*78
$GPGSV,2,2,08,38,11,236,,39,25,192,,40,23,157,,41,13,127,*7F
$GLGSV,2,1,07,67,84,261,37,68,29,313,38,75,07,035,,76,52,049,26*6E
$GLGSV,2,2,07,77,58,191,,78,10,207,30,83,06,290,34*5F
$GNGSA,A,3,09,05,,,,,,,,,,,10.3,08.1,06.2*1F
$GNGSA,A,3,67,83,68,,,,,,,,,,10.3,08.1,06.2*17
$PORZD,A,073.1*39
$GPGGA,075758.00,5650.8209,N,03553.3389,E,1,05,08.1,135.2,M,16.0,M,,*5E
$GPRMC,075758.00,A,5650.8209,N,03553.3389,E,10.64,040.1,050318,,,A*5B
$GPGSV,2,1,08,05,25,310,39,09,76,124,41,33,11,236,,37,24,197,*78
$GPGSV,2,2,08,38,11,236,,39,25,192,,40,23,157,,41,13,127,*7F
$GLGSV,2,1,07,67,84,261,37,68,29,313,38,75,07,035,,76,52,049,26*6E
$GLGSV,2,2,07,77,58,191,,78,10,207,29,83,06,290,34*57
$GNGSA,A,3,09,05,,,,,,,,,,,10.3,08.1,06.2*1F
$GNGSA,A,3,67,83,68,,,,,,,,,,10.3,08.1,06.2*17
$PORZD,A,072.3*3A
$GPGGA,075759.00,5650.8212,N,03553.3418,E,1,05,08.1,133.7,M,16.0,M,,*59
$GPRMC,075759.00,A,5650.8212,N,03553.3418,E,06.00,032.5,050318,,,A*5B
$GPGSV,2,1,08,05,25,310,39,09,76,124,40,33,11,236,,37,24,197,*79
$GPGSV,2,2,08,38,11,236,,39,25,192,,40,23,157,,41,13,127,*7F
$GLGSV,2,1,07,67,84,261,36,68,29,313,38,75,07,035,,76,52,049,26*6F
$GLGSV,2,2,07,77,58,191,,78,10,207,28,83,06,290,34*56
$GNGSA,A,3,09,05,,,,,,,,,,,10.3,08.1,06.2*1F
$GNGSA,A,3,67,83,68,,,,,,,,,,10.3,08.1,06.2*17
$PORZD,A,073.5*3D
$GPGGA,075800.00,5650.8196,N,03553.3421,E,1,05,08.1,131.6,M,16.0,M,,*5C
